[
  {
    "id": 1,
    "name": "울산무거점",
    "address": "울산광역시 남구 대학로 124(무거동)",
    "tel": "052-222-2994",
    "time": "10:00~21:00 (연중 무휴, 명절 당일 제외)",
    "type": "대리점",
    "lat": 35.545657,
    "lng": 129.26135
  },
  {
    "id": 2,
    "name": "홈플러스아시아드점",
    "address": "부산광역시 연제구 종합운동장로 7(거제동)  홈플러스아시아드점 1층",
    "tel": "051-507-3932",
    "time": "10:00~21:00 (연중 무휴, 명절 당일 제외)",
    "type": "대리점",
    "lat": 35.190903,
    "lng": 129.062122
  },
  {
    "id": 3,
    "name": "세이브존성남점",
    "address": "경기도 성남시 수정구 산성대로 337(신흥동)  세이브존성남점",
    "tel": "031-730-1699",
    "time": "10:00~21:00 (연중 무휴, 명절 당일 제외)",
    "type": "대리점",
    "lat": 37.443987,
    "lng": 127.153317
  },
  {
    "id": 4,
    "name": "롯데마트익산점",
    "address": "전라북도 익산시 무왕로 1053(영등동)  롯데마트익산점 3층",
    "tel": "070-7532-1119",
    "time": "10:00~21:00 (연중 무휴, 명절 당일 제외)",
    "type": "대리점",
    "lat": 35.959086,
    "lng": 126.974025
  },
  {
    "id": 5,
    "name": "이마트월배점",
    "address": "대구광역시 달서구 진천로 92(대천동)  이마트월배점",
    "tel": "053-631-0600",
    "time": "10:00~21:00 (연중 무휴, 명절 당일 제외)",
    "type": "대리점",
    "lat": 35.817147,
    "lng": 128.523635
  },
  {
    "id": 6,
    "name": "롯데김포점",
    "address": "서울특별시 강서구 하늘길 38(방화동)  롯데김포점",
    "tel": "02-6116-3464",
    "time": "10:00~21:00 (연중 무휴, 명절 당일 제외)",
    "type": "백화점",
    "lat": 37.565012,
    "lng": 126.802954
  },
  {
    "id": 7,
    "name": "NC충장점",
    "address": "광주광역시 동구 중앙로 163(충장로4가)  NC충장점 4층",
    "tel": "062-718-9538",
    "time": "10:00~21:00 (연중 무휴, 명절 당일 제외)",
    "type": "백화점",
    "lat": 35.148774,
    "lng": 126.913107
  },
  {
    "id": 8,
    "name": "사천복합점",
    "address": "경상남도 사천시 사천읍 읍내로 16-1",
    "tel": "055-855-3838",
    "time": "10:00~21:00 (연중 무휴, 명절 당일 제외)",
    "type": "대리점",
    "lat": 35.083877,
    "lng": 128.087457
  },
  {
    "id": 9,
    "name": "인천복합점",
    "address": "인천광역시 부평구 부평대로 51(부평동)",
    "tel": "032-522-4133",
    "time": "10:00~21:00 (연중 무휴, 명절 당일 제외)",
    "type": "대리점",
    "lat": 37.496049,
    "lng": 126.722271
  },
  {
    "id": 10,
    "name": "이마트춘천점",
    "address": "강원도 춘천시 경춘로 2353(온의동)  이마트춘천점",
    "tel": "033-244-1318",
    "time": "10:00~21:00 (연중 무휴, 명절 당일 제외)",
    "type": "대리점",
    "lat": 37.863802,
    "lng": 127.718304
  },
  {
    "id": 11,
    "name": "홈플러스보령점",
    "address": "충청남도 보령시 명암1길 17  홈플러스보령점 2층",
    "tel": "041-935-9915",
    "time": "10:00~21:00 (연중 무휴, 명절 당일 제외)",
    "type": "대리점",
    "lat": 36.344041,
    "lng": 126.613875
  },
  {
    "id": 12,
    "name": "이마트죽전점",
    "address": "경기도 용인시 수지구 포은대로 552(죽전동)  이마트죽전점",
    "tel": "031-898-0096",
    "time": "10:00~21:00 (연중 무휴, 명절 당일 제외)",
    "type": "대리점",
    "lat": 37.325361,
    "lng": 127.109911
  },
  {
    "id": 13,
    "name": "춘천명동점",
    "address": "강원도 춘천시 명동길 13-1(조양동)  ",
    "tel": "033-252-7747",
    "time": "10:00~21:00 (연중 무휴, 명절 당일 제외)",
    "type": "대리점",
    "lat": 35.22867,
    "lng": 128.885223
  },
  {
    "id": 14,
    "name": "LF스퀘어연수상설점",
    "address": "인천광역시 연수구 용담로 14(청학동, 연수1차하나아파트  LF스퀘어연수점",
    "tel": "032-817-7679",
    "time": "10:00~21:00 (연중 무휴, 명절 당일 제외)",
    "type": "대리점",
    "lat": 35.22867,
    "lng": 128.885223
  },
  {
    "id": 15,
    "name": "AK수원점",
    "address": "경기도 수원시 팔달구 덕영대로 924(매산로1가)  AK수원점",
    "tel": "031-240-1808",
    "time": "10:00~21:00 (연중 무휴, 명절 당일 제외)",
    "type": "백화점",
    "lat": 37.26615,
    "lng": 126.999872
  },
  {
    "id": 16,
    "name": "롯데창원점",
    "address": "경상남도 창원시 성산구 중앙대로 124(상남동)  롯데창원점",
    "tel": "055-279-2567",
    "time": "10:00~21:00 (연중 무휴, 명절 당일 제외)",
    "type": "백화점",
    "lat": 35.224572,
    "lng": 128.681831
  },
  {
    "id": 17,
    "name": "롯데영등포점",
    "address": "서울특별시 영등포구 경인로 846(영등포동)  롯데영등포점",
    "tel": "02-2164-5469",
    "time": "10:00~21:00 (연중 무휴, 명절 당일 제외)",
    "type": "백화점",
    "lat": 37.515649,
    "lng": 126.906334
  },
  {
    "id": 18,
    "name": "롯데잠실",
    "address": "서울시 송파구 올림픽로 240 (잠실동, 롯데백화점 7층)",
    "tel": "02-2143-7572",
    "time": "10:00~21:00 (연중 무휴, 명절 당일 제외)",
    "type": "백화점",
    "lat": 37.51126,
    "lng": 127.097998
  },
  {
    "id": 19,
    "name": "롯데강남점",
    "address": "서울특별시 강남구 도곡로 401(대치동)  롯데강남점",
    "tel": "02-531-2775",
    "time": "10:00~21:00 (연중 무휴, 명절 당일 제외)",
    "type": "백화점",
    "lat": 37.496944,
    "lng": 127.053266
  },
  {
    "id": 20,
    "name": "롯데분당점",
    "address": "경기도 성남시 분당구 황새울로200번길 45(수내동)  롯데분당점",
    "tel": "031-738-2515",
    "time": "10:00~21:00 (연중 무휴, 명절 당일 제외)",
    "type": "백화점",
    "lat": 37.378446,
    "lng": 127.114277
  },
  {
    "id": 21,
    "name": "롯데센텀점",
    "address": "부산광역시 해운대구 센텀남대로 59(우동)  롯데센텀점",
    "tel": "051-730-3561",
    "time": "10:00~21:00 (연중 무휴, 명절 당일 제외)",
    "type": "백화점",
    "lat": 35.169866,
    "lng": 129.131103
  },
  {
    "id": 22,
    "name": "NC해운대점",
    "address": "부산광역시 해운대구 해운대로 813(좌동)  NC해운대점",
    "tel": "051-709-5745",
    "time": "10:00~21:00 (연중 무휴, 명절 당일 제외)",
    "type": "백화점",
    "lat": 35.170554,
    "lng": 129.17706
  },
  {
    "id": 23,
    "name": "롯데동래점",
    "address": "부산광역시 동래구 중앙대로 1393(온천동)  롯데동래점",
    "tel": "051-668-4576",
    "time": "10:00~21:00 (연중 무휴, 명절 당일 제외)",
    "type": "대리점",
    "lat": 35.211827,
    "lng": 129.077452
  },
  {
    "id": 24,
    "name": "이마트광명소하점",
    "address": "경기도 광명시 소하로 97(소하동)  이마트광명소하점",
    "tel": "02-897-3567",
    "time": "10:00~21:00 (연중 무휴, 명절 당일 제외)",
    "type": "대리점",
    "lat": 35.22867,
    "lng": 128.885223
  },
  {
    "id": 25,
    "name": "이마트수원점",
    "address": "경기도 수원시 권선구 경수대로 270(권선동)  이마트수원점 2층",
    "tel": "031-207-1286",
    "time": "10:00~21:00 (연중 무휴, 명절 당일 제외)",
    "type": "대리점",
    "lat": 35.22867,
    "lng": 128.885223
  },
  {
    "id": 26,
    "name": "이마트서수원점",
    "address": "경기도 수원시 권선구 수인로 291(구운동)  이마트서수원점",
    "tel": "031-294-6882",
    "time": "10:00~21:00 (연중 무휴, 명절 당일 제외)",
    "type": "대리점",
    "lat": 35.22867,
    "lng": 128.885223
  },
  {
    "id": 27,
    "name": "이마트수지점",
    "address": "경기도 용인시 수지구 수지로 203(신봉동)  이마트수지점",
    "tel": "031-264-9669",
    "time": "10:00~21:00 (연중 무휴, 명절 당일 제외)",
    "type": "대리점",
    "lat": 35.22867,
    "lng": 128.885223
  },
  {
    "id": 28,
    "name": "목포직영점",
    "address": "전라남도 목포시 영산로75번길 16-2(명륜동)  ",
    "tel": "061-247-0700",
    "time": "10:00~21:00 (연중 무휴, 명절 당일 제외)",
    "type": "직영점",
    "lat": 34.790647,
    "lng": 126.384445
  },
  {
    "id": 29,
    "name": "롯데아울렛파주점",
    "address": "경기도 파주시 회동길 390(문발동)  롯데아울렛파주점 1층",
    "tel": "031-960-2908",
    "time": "10:00~21:00 (연중 무휴, 명절 당일 제외)",
    "type": "백화점",
    "lat": 37.717728,
    "lng": 126.693756
  },
  {
    "id": 30,
    "name": "합성점",
    "address": "경상남도 창원시 마산회원구 3·15대로 765(합성동)  ",
    "tel": "055-296-6303",
    "time": "10:00~21:00 (연중 무휴, 명절 당일 제외)",
    "type": "대리점",
    "lat": 35.22867,
    "lng": 128.885223
  },
  {
    "id": 31,
    "name": "언양점",
    "address": "울산광역시 울주군 언양읍 헌양길 34  ",
    "tel": "052-263-1828",
    "time": "10:00~21:00 (연중 무휴, 명절 당일 제외)",
    "type": "대리점",
    "lat": 35.22867,
    "lng": 128.885223
  },
  {
    "id": 32,
    "name": "만수점",
    "address": "인천광역시 남동구 만수로 63(만수동)  ",
    "tel": "032-463-8500",
    "time": "10:00~21:00 (연중 무휴, 명절 당일 제외)",
    "type": "대리점",
    "lat": 35.22867,
    "lng": 128.885223
  },
  {
    "id": 33,
    "name": "롯데상인점",
    "address": "대구광역시 달서구 월배로 232(상인동)  롯데상인점",
    "tel": "053-258-3552",
    "time": "10:00~21:00 (연중 무휴, 명절 당일 제외)",
    "type": "백화점",
    "lat": 35.8188,
    "lng": 128.53888
  },
  {
    "id": 34,
    "name": "롯데대전점",
    "address": "대전광역시 서구 계룡로 598(괴정동)  롯데대전점",
    "tel": "042-601-3233",
    "time": "10:00~21:00 (연중 무휴, 명절 당일 제외)",
    "type": "백화점",
    "lat": 36.340624,
    "lng": 127.389564
  },
  {
    "id": 35,
    "name": "신탄진점",
    "address": "대전광역시 대덕구 신탄진로 829(신탄진동)  ",
    "tel": "042-932-0336",
    "time": "10:00~21:00 (연중 무휴, 명절 당일 제외)",
    "type": "대리점",
    "lat": 35.22867,
    "lng": 128.885223
  },
  {
    "id": 36,
    "name": "예천점",
    "address": "경상북도 예천군 예천읍 시장로 88  ",
    "tel": "054-652-0777",
    "time": "10:00~21:00 (연중 무휴, 명절 당일 제외)",
    "type": "대리점",
    "lat": 35.22867,
    "lng": 128.885223
  },
  {
    "id": 37,
    "name": "마산상설점",
    "address": "경상남도 창원시 마산회원구 합포로 318(양덕동)  ",
    "tel": "055-298-6301",
    "time": "10:00~21:00 (연중 무휴, 명절 당일 제외)",
    "type": "대리점",
    "lat": 35.22867,
    "lng": 128.885223
  },
  {
    "id": 38,
    "name": "NC엑스코점",
    "address": "대구광역시 북구 유통단지로14길 22(산격동)  NC엑스코점 2층",
    "tel": "053-662-9332",
    "time": "10:00~21:00 (연중 무휴, 명절 당일 제외)",
    "type": "백화점",
    "lat": 35.905229,
    "lng": 128.610364
  },
  {
    "id": 39,
    "name": "롯데아울렛부여점",
    "address": "충청남도 부여군 규암면 백제문로 387  롯데아울렛부여점 2층",
    "tel": "041-435-2714",
    "time": "10:00~21:00 (연중 무휴, 명절 당일 제외)",
    "type": "백화점",
    "lat": 36.307166,
    "lng": 126.901954
  },
  {
    "id": 40,
    "name": "롯데아울렛김해점",
    "address": "경상남도 김해시 장유로 469(신문동)  롯데아울렛김해점 2층",
    "tel": "055-900-2743",
    "time": "10:00~21:00 (연중 무휴, 명절 당일 제외)",
    "type": "백화점",
    "lat": 35.184977,
    "lng": 128.827803
  },
  {
    "id": 41,
    "name": "홈플러스김포점",
    "address": "경기도 김포시 중봉로 14(감정동)  홈플러스김포점 1층",
    "tel": "031-981-8197",
    "time": "10:00~21:00 (연중 무휴, 명절 당일 제외)",
    "type": "대리점",
    "lat": 35.22867,
    "lng": 128.885223
  },
  {
    "id": 42,
    "name": "홈플러스김포풍무점",
    "address": "경기도 김포시 풍무로 167(풍무동)  홈플러스김포풍무점",
    "tel": "031-987-8197",
    "time": "10:00~21:00 (연중 무휴, 명절 당일 제외)",
    "type": "대리점",
    "lat": 35.22867,
    "lng": 128.885223
  },
  {
    "id": 43,
    "name": "홈플러스유성점",
    "address": "대전광역시 유성구 한밭대로 502(봉명동)  홈플러스유성점 3층",
    "tel": "042-822-3351",
    "time": "10:00~21:00 (연중 무휴, 명절 당일 제외)",
    "type": "대리점",
    "lat": 35.22867,
    "lng": 128.885223
  },
  {
    "id": 44,
    "name": "롯데포항점",
    "address": "경상북도 포항시 북구 학산로 62(학산동)  롯데포항점",
    "tel": "054-230-1554",
    "time": "10:00~21:00 (연중 무휴, 명절 당일 제외)",
    "type": "백화점",
    "lat": 36.049711,
    "lng": 129.369741
  },
  {
    "id": 45,
    "name": "상주점",
    "address": "경상북도 상주시 상산로 289(서성동)  ",
    "tel": "054-535-3483",
    "time": "10:00~21:00 (연중 무휴, 명절 당일 제외)",
    "type": "대리점",
    "lat": 35.22867,
    "lng": 128.885223
  },
  {
    "id": 46,
    "name": "금촌점",
    "address": "경기도 파주시 문화로 103-2(금촌동)  ",
    "tel": "031-941-2343",
    "time": "10:00~21:00 (연중 무휴, 명절 당일 제외)",
    "type": "대리점",
    "lat": 35.22867,
    "lng": 128.885223
  },
  {
    "id": 47,
    "name": "이리중앙점",
    "address": "전라북도 익산시 익산대로16길 9(창인동1가)  ",
    "tel": "063-855-3043",
    "time": "10:00~21:00 (연중 무휴, 명절 당일 제외)",
    "type": "대리점",
    "lat": 35.22867,
    "lng": 128.885223
  },
  {
    "id": 48,
    "name": "삼천포점",
    "address": "경상남도 사천시 중앙로 53(선구동)  ",
    "tel": "055-832-5387",
    "time": "10:00~21:00 (연중 무휴, 명절 당일 제외)",
    "type": "대리점",
    "lat": 35.22867,
    "lng": 128.885223
  },
  {
    "id": 49,
    "name": "전주평화복합점",
    "address": "전라북도 전주시 완산구 장승배기로 100  1층 B101호(평화동2가)",
    "tel": "063-288-6780",
    "time": "10:00~21:00 (연중 무휴, 명절 당일 제외)",
    "type": "대리점",
    "lat": 35.793269,
    "lng": 127.124261
  },
  {
    "id": 50,
    "name": "홈플러스방학점",
    "address": "서울특별시 도봉구 도봉로 678(방학동)  홈플러스방학점",
    "tel": "02-3494-6558",
    "time": "10:00~21:00 (연중 무휴, 명절 당일 제외)",
    "type": "대리점",
    "lat": 35.22867,
    "lng": 128.885223
  },
  {
    "id": 51,
    "name": "목포하당복합점",
    "address": "전라남도 목포시 비파로 28(상동)  ",
    "tel": "061-284-0304",
    "time": "10:00~21:00 (연중 무휴, 명절 당일 제외)",
    "type": "대리점",
    "lat": 35.22867,
    "lng": 128.885223
  },
  {
    "id": 52,
    "name": "서인천점",
    "address": "인천광역시 서구 가정로 201(석남동)  ",
    "tel": "032-573-3244",
    "time": "10:00~21:00 (연중 무휴, 명절 당일 제외)",
    "type": "대리점",
    "lat": 35.22867,
    "lng": 128.885223
  },
  {
    "id": 53,
    "name": "신림점",
    "address": "서울특별시 관악구 신림로 361(신림동)  ",
    "tel": "02-883-0700",
    "time": "10:00~21:00 (연중 무휴, 명절 당일 제외)",
    "type": "대리점",
    "lat": 35.22867,
    "lng": 128.885223
  },
  {
    "id": 54,
    "name": "아이즈빌부평점",
    "address": "인천광역시 부평구 마장로 489(청천동)  1142호",
    "tel": "032-270-2465",
    "time": "10:00~21:00 (연중 무휴, 명절 당일 제외)",
    "type": "대리점",
    "lat": 35.22867,
    "lng": 128.885223
  },
  {
    "id": 55,
    "name": "시흥점",
    "address": "경기도 시흥시 수인로 3433(신천동)  정은패션타운",
    "tel": "031-311-3703",
    "time": "10:00~21:00 (연중 무휴, 명절 당일 제외)",
    "type": "대리점",
    "lat": 37.442125,
    "lng": 126.777662
  },
  {
    "id": 56,
    "name": "동인천점",
    "address": "인천광역시 중구 우현로 83(인현동)  ",
    "tel": "032-762-8778",
    "time": "10:00~21:00 (연중 무휴, 명절 당일 제외)",
    "type": "대리점",
    "lat": 35.22867,
    "lng": 128.885223
  },
  {
    "id": 57,
    "name": "속초점",
    "address": "강원도 속초시 중앙로 94(청학동)  ",
    "tel": "033-633-5592",
    "time": "10:00~21:00 (연중 무휴, 명절 당일 제외)",
    "type": "대리점",
    "lat": 38.201589,
    "lng": 128.586262
  },
  {
    "id": 58,
    "name": "동해점",
    "address": "강원도 동해시 중앙로 248(천곡동)  ",
    "tel": "033-533-1888",
    "time": "10:00~21:00 (연중 무휴, 명절 당일 제외)",
    "type": "대리점",
    "lat": 37.52285,
    "lng": 129.114629
  },
  {
    "id": 59,
    "name": "점촌점",
    "address": "경상북도 문경시 중앙로 109(점촌동)  ",
    "tel": "054-553-3333",
    "time": "10:00~21:00 (연중 무휴, 명절 당일 제외)",
    "type": "대리점",
    "lat": 35.22867,
    "lng": 128.885223
  },
  {
    "id": 60,
    "name": "서청주점",
    "address": "충청북도 청주시 흥덕구 복대로 154(복대동)  ",
    "tel": "043-234-6951",
    "time": "10:00~21:00 (연중 무휴, 명절 당일 제외)",
    "type": "대리점",
    "lat": 35.22867,
    "lng": 128.885223
  },
  {
    "id": 61,
    "name": "대동창원점",
    "address": "경상남도 창원시 성산구 원이대로 730(상남동)  대동백화점 3층",
    "tel": "055-212-8928",
    "time": "10:00~21:00 (연중 무휴, 명절 당일 제외)",
    "type": "백화점",
    "lat": 35.22867,
    "lng": 128.885223
  },
  {
    "id": 62,
    "name": "용호점",
    "address": "부산광역시 남구 용호로 149(용호동)  ",
    "tel": "051-621-1441",
    "time": "10:00~21:00 (연중 무휴, 명절 당일 제외)",
    "type": "대리점",
    "lat": 35.22867,
    "lng": 128.885223
  },
  {
    "id": 63,
    "name": "대구상설점",
    "address": "대구광역시 서구 국채보상로 443(비산동)  ",
    "tel": "053-554-1029",
    "time": "10:00~21:00 (연중 무휴, 명절 당일 제외)",
    "type": "대리점",
    "lat": 35.22867,
    "lng": 128.885223
  },
  {
    "id": 64,
    "name": "여주점",
    "address": "경기도 여주시 세종로14번길 6-1(홍문동)  ",
    "tel": "031-885-2132",
    "time": "10:00~21:00 (연중 무휴, 명절 당일 제외)",
    "type": "대리점",
    "lat": 35.22867,
    "lng": 128.885223
  },
  {
    "id": 65,
    "name": "부천점",
    "address": "경기도 부천시 소사로 721(원종동)  1층",
    "tel": "032-676-8988",
    "time": "10:00~21:00 (연중 무휴, 명절 당일 제외)",
    "type": "대리점",
    "lat": 35.22867,
    "lng": 128.885223
  },
  {
    "id": 66,
    "name": "대구직영점",
    "address": "대구광역시 중구?동성로6길?2-12(동성로2가)  ",
    "tel": "053-255-4611",
    "time": "10:00~21:00 (연중 무휴, 명절 당일 제외)",
    "type": "직영점",
    "lat": 35.868582,
    "lng": 128.595352
  },
  {
    "id": 67,
    "name": "용산상설점",
    "address": "서울특별시 용산구 한강대로 92(한강로2가)  12층",
    "tel": "02-798-3883",
    "time": "평일 09:00 ~ 20:00 / 토요일 11:00 ~ 18:00 (공휴일/일요일 휴무)",
    "type": "직영점",
    "lat": 37.528179,
    "lng": 126.967952
  },
  {
    "id": 68,
    "name": "수유점",
    "address": "서울특별시 강북구 도봉로 273(수유동)  ",
    "tel": "02-989-5695",
    "time": "10:00~21:00 (연중 무휴, 명절 당일 제외)",
    "type": "대리점",
    "lat": 35.22867,
    "lng": 128.885223
  },
  {
    "id": 69,
    "name": "의정부복합점",
    "address": "경기도 의정부시 행복로 27(의정부동)  ",
    "tel": "031-846-3393",
    "time": "10:00~21:00 (연중 무휴, 명절 당일 제외)",
    "type": "대리점",
    "lat": 35.22867,
    "lng": 128.885223
  },
  {
    "id": 70,
    "name": "하동점",
    "address": "경상남도 하동군 하동읍 중앙로 27  ",
    "tel": "055-884-7755",
    "time": "10:00~21:00 (연중 무휴, 명절 당일 제외)",
    "type": "대리점",
    "lat": 35.22867,
    "lng": 128.885223
  },
  {
    "id": 71,
    "name": "뉴코아산본점",
    "address": "경기도 군포시 번영로 504(산본동)  뉴코아산본점",
    "tel": "031-392-0196",
    "time": "10:00~21:00 (연중 무휴, 명절 당일 제외)",
    "type": "대리점",
    "lat": 35.22867,
    "lng": 128.885223
  },
  {
    "id": 72,
    "name": "김포복합점",
    "address": "경기도 김포시 양촌읍 김포대로 1641  ",
    "tel": "031-986-7878",
    "time": "10:00~21:00 (연중 무휴, 명절 당일 제외)",
    "type": "대리점",
    "lat": 35.22867,
    "lng": 128.885223
  },
  {
    "id": 73,
    "name": "롯데본점",
    "address": "서울특별시 중구 남대문로 81(소공동)  롯데본점",
    "tel": "02-772-3758",
    "time": "10:00~21:00 (연중 무휴, 명절 당일 제외)",
    "type": "백화점",
    "lat": 37.564645,
    "lng": 126.980941
  },
  {
    "id": 74,
    "name": "현대부산점",
    "address": "부산광역시 동구 범일로 125(범일동)  현대부산점 6층",
    "tel": "051-667-0669",
    "time": "10:00~21:00 (연중 무휴, 명절 당일 제외)",
    "type": "백화점",
    "lat": 35.22867,
    "lng": 128.885223
  },
  {
    "id": 75,
    "name": "롯데광주점",
    "address": "광주광역시 동구 독립로 268(대인동)  롯데광주점 5층",
    "tel": "062-221-1546",
    "time": "10:00~21:00 (연중 무휴, 명절 당일 제외)",
    "type": "백화점",
    "lat": 35.154822,
    "lng": 126.91208
  },
  {
    "id": 76,
    "name": "노원직영점",
    "address": "서울특별시 노원구 동일로 1396(상계동)  ",
    "tel": "02-935-8100",
    "time": "10:00~21:00 (연중 무휴, 명절 당일 제외)",
    "type": "직영점",
    "lat": 37.653226,
    "lng": 127.061295
  },
  {
    "id": 77,
    "name": "세이브존화정점",
    "address": "경기도 고양시 덕양구 화정로 52(화정동)  세이브존화정점 1층",
    "tel": "031-970-1991",
    "time": "10:00~21:00 (연중 무휴, 명절 당일 제외)",
    "type": "대리점",
    "lat": 35.22867,
    "lng": 128.885223
  },
  {
    "id": 78,
    "name": "신세계본점",
    "address": "서울특별시 중구 소공로 63(충무로1가)  신세계본점 4층",
    "tel": "02-310-1466",
    "time": "10:00~21:00 (연중 무휴, 명절 당일 제외)",
    "type": "백화점",
    "lat": 35.22867,
    "lng": 128.885223
  },
  {
    "id": 79,
    "name": "엔터식스강변점",
    "address": "서울특별시 광진구 광나루로56길 85(구의동)  엔터식스강변점",
    "tel": "02-3424-1534",
    "time": "10:00~21:00 (연중 무휴, 명절 당일 제외)",
    "type": "대리점",
    "lat": 35.22867,
    "lng": 128.885223
  },
  {
    "id": 80,
    "name": "하양점",
    "address": "경상북도 경산시 하양읍 하양로 122  ",
    "tel": "053-854-5553",
    "time": "10:00~21:00 (연중 무휴, 명절 당일 제외)",
    "type": "대리점",
    "lat": 35.22867,
    "lng": 128.885223
  },
  {
    "id": 81,
    "name": "W몰구로점(상설)",
    "address": "서울특별시 금천구 디지털로 188(가산동)  W몰구로점",
    "tel": "02-2081-0543",
    "time": "10:00~21:00 (연중 무휴, 명절 당일 제외)",
    "type": "대리점",
    "lat": 35.22867,
    "lng": 128.885223
  },
  {
    "id": 82,
    "name": "애플아울렛사상점",
    "address": "부산광역시 사상구 사상로 201(괘법동)  애플아울렛사상점 1층",
    "tel": "051-559-6284",
    "time": "10:00~21:00 (연중 무휴, 명절 당일 제외)",
    "type": "대리점",
    "lat": 35.22867,
    "lng": 128.885223
  },
  {
    "id": 83,
    "name": "함양점",
    "address": "경상남도 함양군 함양읍 용평길 6-14  ",
    "tel": "055-964-0033",
    "time": "10:00~21:00 (연중 무휴, 명절 당일 제외)",
    "type": "대리점",
    "lat": 35.22867,
    "lng": 128.885223
  },
  {
    "id": 84,
    "name": "진주신안점",
    "address": "경상남도 진주시 진양호로 307(신안동)  ",
    "tel": "055-742-4454",
    "time": "10:00~21:00 (연중 무휴, 명절 당일 제외)",
    "type": "대리점",
    "lat": 35.22867,
    "lng": 128.885223
  },
  {
    "id": 85,
    "name": "이마트성수점",
    "address": "서울특별시 성동구 뚝섬로 379(성수동2가)  이마트성수점",
    "tel": "02-465-3763",
    "time": "10:00~21:00 (연중 무휴, 명절 당일 제외)",
    "type": "대리점",
    "lat": 35.22867,
    "lng": 128.885223
  },
  {
    "id": 86,
    "name": "이마트은평점",
    "address": "서울특별시 은평구 은평로 111(응암동)  이마트은평점",
    "tel": "02-388-6794",
    "time": "10:00~21:00 (연중 무휴, 명절 당일 제외)",
    "type": "대리점",
    "lat": 35.22867,
    "lng": 128.885223
  },
  {
    "id": 87,
    "name": "이마트왕십리점",
    "address": "서울특별시 성동구 왕십리광장로 17 이마트왕십리점  이마트왕십리점",
    "tel": "02-2200-1133",
    "time": "10:00~21:00 (연중 무휴, 명절 당일 제외)",
    "type": "대리점",
    "lat": 35.22867,
    "lng": 128.885223
  },
  {
    "id": 88,
    "name": "롯데마트서울역점",
    "address": "서울특별시 중구 청파로 426(봉래동2가)  롯데마트서울역점",
    "tel": "070-8805-4222",
    "time": "10:00~21:00 (연중 무휴, 명절 당일 제외)",
    "type": "대리점",
    "lat": 35.22867,
    "lng": 128.885223
  },
  {
    "id": 89,
    "name": "롯데중동점",
    "address": "경기도 부천시 길주로 300(중동)  롯데중동점",
    "tel": "032-320-7530",
    "time": "10:00~21:00 (연중 무휴, 명절 당일 제외)",
    "type": "백화점",
    "lat": 37.502595,
    "lng": 126.77488
  },
  {
    "id": 90,
    "name": "롯데구리점",
    "address": "경기도 구리시 경춘로 261(인창동)  롯데구리점",
    "tel": "031-550-7546",
    "time": "10:00~21:00 (연중 무휴, 명절 당일 제외)",
    "type": "백화점",
    "lat": 37.602601,
    "lng": 127.143515
  },
  {
    "id": 91,
    "name": "밀양점",
    "address": "경상남도 밀양시 석정로 31(내일동)  ",
    "tel": "055-353-5678",
    "time": "10:00~21:00 (연중 무휴, 명절 당일 제외)",
    "type": "대리점",
    "lat": 35.22867,
    "lng": 128.885223
  },
  {
    "id": 92,
    "name": "IS스포츠복합점",
    "address": "전라북도 익산시 무왕로 1105(영등동)  ",
    "tel": "063-835-7907",
    "time": "10:00~21:00 (연중 무휴, 명절 당일 제외)",
    "type": "대리점",
    "lat": 35.22867,
    "lng": 128.885223
  },
  {
    "id": 93,
    "name": "여수점",
    "address": "전라남도 여수시 통제영3길 10-6(교동)  ",
    "tel": "061-662-1130",
    "time": "10:00~21:00 (연중 무휴, 명절 당일 제외)",
    "type": "대리점",
    "lat": 35.22867,
    "lng": 128.885223
  },
  {
    "id": 94,
    "name": "광주송정점",
    "address": "광주광역시 광산구 광산로 21-1(송정동)  ",
    "tel": "062-941-9292",
    "time": "10:00~21:00 (연중 무휴, 명절 당일 제외)",
    "type": "대리점",
    "lat": 35.22867,
    "lng": 128.885223
  },
  {
    "id": 95,
    "name": "태능점",
    "address": "서울특별시 중랑구 숙선옹주로 5(묵동)  ",
    "tel": "02-973-4876",
    "time": "10:00~21:00 (연중 무휴, 명절 당일 제외)",
    "type": "대리점",
    "lat": 35.22867,
    "lng": 128.885223
  },
  {
    "id": 96,
    "name": "현대천호점",
    "address": "서울특별시 강동구 천호대로 1015-14(천호동)  현대천호점",
    "tel": "02-2225-7739",
    "time": "10:00~21:00 (연중 무휴, 명절 당일 제외)",
    "type": "백화점",
    "lat": 35.22867,
    "lng": 128.885223
  },
  {
    "id": 97,
    "name": "이마트이천점",
    "address": "경기도 이천시 이섭대천로 1440-50(증포동)  이마트이천점",
    "tel": "031-637-3311",
    "time": "10:00~21:00 (연중 무휴, 명절 당일 제외)",
    "type": "대리점",
    "lat": 35.22867,
    "lng": 128.885223
  },
  {
    "id": 98,
    "name": "거창중앙점",
    "address": "경상남도 거창군 거창읍 중앙로 116-3  ",
    "tel": "055-944-2422",
    "time": "10:00~21:00 (연중 무휴, 명절 당일 제외)",
    "type": "대리점",
    "lat": 35.686356,
    "lng": 127.911215
  },
  {
    "id": 99,
    "name": "당진점",
    "address": "충청남도 당진시 당진중앙1로 71(읍내동)  ",
    "tel": "041-355-4543",
    "time": "10:00~21:00 (연중 무휴, 명절 당일 제외)",
    "type": "대리점",
    "lat": 36.893445,
    "lng": 126.628987
  },
  {
    "id": 100,
    "name": "롯데마트영통점",
    "address": "경기도 수원시 영통구 봉영로 1579(영통동)  롯데마트영통점",
    "tel": "031-204-1335",
    "time": "10:00~21:00 (연중 무휴, 명절 당일 제외)",
    "type": "대리점",
    "lat": 37.252668,
    "lng": 127.071572
  },
  {
    "id": 101,
    "name": "세이브존노원점",
    "address": "서울특별시 노원구 한글비석로 57(하계동)  세이브존노원점 1층",
    "tel": "02-977-0198",
    "time": "10:00~21:00 (연중 무휴, 명절 당일 제외)",
    "type": "대리점",
    "lat": 35.22867,
    "lng": 128.885223
  },
  {
    "id": 102,
    "name": "롯데마트마산점",
    "address": "경상남도 창원시 마산합포구 신마산시장길 33(창포동3가)  롯데마트마산점 1층",
    "tel": "055-222-2462",
    "time": "10:00~21:00 (연중 무휴, 명절 당일 제외)",
    "type": "대리점",
    "lat": 35.22867,
    "lng": 128.885223
  },
  {
    "id": 103,
    "name": "강릉점",
    "address": "강원도 강릉시 임영로110(성내동)  ",
    "tel": "033-643-7400",
    "time": "10:00~21:00 (연중 무휴, 명절 당일 제외)",
    "type": "대리점",
    "lat": 37.751794,
    "lng": 128.894231
  },
  {
    "id": 104,
    "name": "2001분당점",
    "address": "경기도 성남시 분당구 미금일로154번길 20(구미동)  2001분당점",
    "tel": "031-719-4799",
    "time": "10:00~21:00 (연중 무휴, 명절 당일 제외)",
    "type": "백화점",
    "lat": 35.22867,
    "lng": 128.885223
  },
  {
    "id": 105,
    "name": "용인점",
    "address": "경기도 용인시 처인구 금령로 105(김량장동)  ",
    "tel": "031-335-2618",
    "time": "10:00~21:00 (연중 무휴, 명절 당일 제외)",
    "type": "대리점",
    "lat": 35.22867,
    "lng": 128.885223
  },
  {
    "id": 106,
    "name": "이마트연제점",
    "address": "부산광역시 연제구 연수로 89(연산동)  부산광역시 연제구 연수로 89(연산동)",
    "tel": "051-853-7037",
    "time": "10:00~21:00 (연중 무휴, 명절 당일 제외)",
    "type": "대리점",
    "lat": 35.22867,
    "lng": 128.885223
  },
  {
    "id": 107,
    "name": "강진점",
    "address": "전라남도 강진군 강진읍 중앙로 128-1  ",
    "tel": "061-434-1551",
    "time": "10:00~21:00 (연중 무휴, 명절 당일 제외)",
    "type": "대리점",
    "lat": 35.22867,
    "lng": 128.885223
  },
  {
    "id": 108,
    "name": "포항죽도복합점",
    "address": "경상북도 포항시 북구 중앙로 260(죽도동)  ",
    "tel": "054-246-6464",
    "time": "10:00~21:00 (연중 무휴, 명절 당일 제외)",
    "type": "대리점",
    "lat": 35.22867,
    "lng": 128.885223
  },
  {
    "id": 109,
    "name": "세이브존전주코아점",
    "address": "전라북도 전주시 완산구 팔달로 262-6(서노송동)  세이브존전주코아점",
    "tel": "063-231-6111",
    "time": "10:00~21:00 (연중 무휴, 명절 당일 제외)",
    "type": "대리점",
    "lat": 35.22867,
    "lng": 128.885223
  },
  {
    "id": 110,
    "name": "천안쌍용점",
    "address": "충청남도 천안시 서북구 쌍용대로 57(쌍용동)  ",
    "tel": "041-571-0575",
    "time": "10:00~21:00 (연중 무휴, 명절 당일 제외)",
    "type": "대리점",
    "lat": 35.22867,
    "lng": 128.885223
  },
  {
    "id": 111,
    "name": "동아쇼핑점",
    "address": "대구광역시 중구 달구벌대로 2085(덕산동)  동아쇼핑점 5층",
    "tel": "053-255-7726",
    "time": "10:00~21:00 (연중 무휴, 명절 당일 제외)",
    "type": "백화점",
    "lat": 35.22867,
    "lng": 128.885223
  },
  {
    "id": 112,
    "name": "신포점",
    "address": "인천광역시 중구 제물량로166번길 38-1(내동)  ",
    "tel": "032-763-4141",
    "time": "10:00~21:00 (연중 무휴, 명절 당일 제외)",
    "type": "대리점",
    "lat": 35.22867,
    "lng": 128.885223
  },
  {
    "id": 113,
    "name": "롯데청량리점",
    "address": "서울특별시 동대문구 왕산로 214(전농동)  롯데청량리점",
    "tel": "02-3707-1626",
    "time": "10:00~21:00 (연중 무휴, 명절 당일 제외)",
    "type": "백화점",
    "lat": 35.22867,
    "lng": 128.885223
  },
  {
    "id": 114,
    "name": "안강점",
    "address": "경상북도 경주시 안강읍 비화동길 8-2  ",
    "tel": "054-761-8383",
    "time": "10:00~21:00 (연중 무휴, 명절 당일 제외)",
    "type": "대리점",
    "lat": 35.22867,
    "lng": 128.885223
  },
  {
    "id": 115,
    "name": "이마트하남점",
    "address": "경기도 하남시 덕풍서로 70(덕풍동)  이마트하남점",
    "tel": "031-791-2471",
    "time": "10:00~21:00 (연중 무휴, 명절 당일 제외)",
    "type": "대리점",
    "lat": 35.22867,
    "lng": 128.885223
  },
  {
    "id": 116,
    "name": "부안점",
    "address": "전라북도 부안군 부안읍 석정로 220  ",
    "tel": "063-584-5009",
    "time": "10:00~21:00 (연중 무휴, 명절 당일 제외)",
    "type": "대리점",
    "lat": 35.22867,
    "lng": 128.885223
  },
  {
    "id": 117,
    "name": "롯데부산점",
    "address": "부산광역시 부산진구 가야대로 772(부전동)  롯데부산점",
    "tel": "051-810-4577",
    "time": "10:00~21:00 (연중 무휴, 명절 당일 제외)",
    "type": "백화점",
    "lat": 35.22867,
    "lng": 128.885223
  },
  {
    "id": 118,
    "name": "태백점",
    "address": "강원도 태백시 황지로153(황지동)  ",
    "tel": "033-552-3106",
    "time": "10:00~21:00 (연중 무휴, 명절 당일 제외)",
    "type": "대리점",
    "lat": 37.172447,
    "lng": 128.992157
  },
  {
    "id": 119,
    "name": "남해점",
    "address": "경상남도 남해군 남해읍 화전로 93  ",
    "tel": "055-862-4455",
    "time": "10:00~21:00 (연중 무휴, 명절 당일 제외)",
    "type": "대리점",
    "lat": 35.22867,
    "lng": 128.885223
  },
  {
    "id": 120,
    "name": "온양점",
    "address": "충청남도 아산시 온천대로 1487-3(온천동)  ",
    "tel": "041-546-3002",
    "time": "10:00~21:00 (연중 무휴, 명절 당일 제외)",
    "type": "대리점",
    "lat": 35.22867,
    "lng": 128.885223
  },
  {
    "id": 121,
    "name": "모다아울렛진주점",
    "address": "경상남도 진주시 정촌면 삼일로95번길 46  ",
    "tel": "055-923-1047",
    "time": "10:00~21:00 (연중 무휴, 명절 당일 제외)",
    "type": "대리점",
    "lat": 35.22867,
    "lng": 128.885223
  },
  {
    "id": 122,
    "name": "롯데아울렛구리점",
    "address": "경기도 구리시 동구릉로136번길 47(인창동)  롯데아울렛구리점 5층",
    "tel": "031-8034-2513",
    "time": "10:00~21:00 (연중 무휴, 명절 당일 제외)",
    "type": "백화점",
    "lat": 37.611849,
    "lng": 127.140509
  },
  {
    "id": 123,
    "name": "롯데수원점",
    "address": "경기도 수원시 권선구 세화로 134(서둔동)  롯데수원점",
    "tel": "031-8066-0457",
    "time": "10:00~21:00 (연중 무휴, 명절 당일 제외)",
    "type": "백화점",
    "lat": 37.26415,
    "lng": 126.997099
  },
  {
    "id": 124,
    "name": "양구점",
    "address": "강원도 양구군 양구읍 중앙길 14  ",
    "tel": "033-481-8877",
    "time": "10:00~21:00 (연중 무휴, 명절 당일 제외)",
    "type": "대리점",
    "lat": 35.22867,
    "lng": 128.885223
  },
  {
    "id": 125,
    "name": "문정복합점",
    "address": "서울특별시 송파구 동남로 133(가락동)  ",
    "tel": "02-448-9189",
    "time": "10:00~21:00 (연중 무휴, 명절 당일 제외)",
    "type": "대리점",
    "lat": 35.22867,
    "lng": 128.885223
  },
  {
    "id": 126,
    "name": "양산점",
    "address": "경상남도 양산시 삼일로 68(중부동)  ",
    "tel": "055-366-6787",
    "time": "10:00~21:00 (연중 무휴, 명절 당일 제외)",
    "type": "대리점",
    "lat": 35.343462,
    "lng": 129.034723
  },
  {
    "id": 127,
    "name": "롯데광복점",
    "address": "부산광역시 중구 중앙대로 2(중앙동7가)  롯데광복점",
    "tel": "051-678-3767",
    "time": "10:00~21:00 (연중 무휴, 명절 당일 제외)",
    "type": "백화점",
    "lat": 35.098018,
    "lng": 129.036119
  },
  {
    "id": 128,
    "name": "안동점",
    "address": "경상북도 안동시 서동문로 174-4(삼산동)  ",
    "tel": "054-858-6600",
    "time": "10:00~21:00 (연중 무휴, 명절 당일 제외)",
    "type": "대리점",
    "lat": 36.565983,
    "lng": 128.730848
  },
  {
    "id": 129,
    "name": "가평점",
    "address": "경기도 가평군 가평읍 가화로 112  ",
    "tel": "031-582-4346",
    "time": "10:00~21:00 (연중 무휴, 명절 당일 제외)",
    "type": "대리점",
    "lat": 35.22867,
    "lng": 128.885223
  },
  {
    "id": 130,
    "name": "롯데아울렛광명점",
    "address": "경기도 광명시 일직로 17(일직동)  롯데아울렛광명점 3층",
    "tel": "02-6226-2387",
    "time": "10:00~21:00 (연중 무휴, 명절 당일 제외)",
    "type": "백화점",
    "lat": 35.22867,
    "lng": 128.885223
  },
  {
    "id": 131,
    "name": "라붐봉천점",
    "address": "서울특별시 관악구 남부순환로 1820(봉천동)  에그엘로우 지하2층",
    "tel": "02-882-3024",
    "time": "10:00~21:00 (연중 무휴, 명절 당일 제외)",
    "type": "대리점",
    "lat": 35.22867,
    "lng": 128.885223
  },
  {
    "id": 132,
    "name": "천안복합점",
    "address": "충청남도 천안시 서북구 직산읍 삼은1길 10-8  직산패션아울렛",
    "tel": "041-581-8688",
    "time": "10:00~21:00 (연중 무휴, 명절 당일 제외)",
    "type": "대리점",
    "lat": 35.22867,
    "lng": 128.885223
  },
  {
    "id": 133,
    "name": "메가마트남천점",
    "address": "부산광역시 수영구 황령대로 521(남천동)  메가마트남천점",
    "tel": "010-3809-5975",
    "time": "10:00~21:00 (연중 무휴, 명절 당일 제외)",
    "type": "대리점",
    "lat": 35.22867,
    "lng": 128.885223
  },
  {
    "id": 134,
    "name": "이마트제주점",
    "address": "제주특별자치도 제주시 탑동로 38(삼도이동)  이마트제주점 2층",
    "tel": "064-722-5929",
    "time": "10:00~21:00 (연중 무휴, 명절 당일 제외)",
    "type": "백화점",
    "lat": 33.518139,
    "lng": 126.520664
  },
  {
    "id": 135,
    "name": "이마트충주점",
    "address": "충청북도 충주시 중원대로 3420(문화동)  이마트충주점 3층",
    "tel": "043-846-8787",
    "time": "10:00~21:00 (연중 무휴, 명절 당일 제외)",
    "type": "백화점",
    "lat": 36.972156,
    "lng": 127.923774
  },
  {
    "id": 136,
    "name": "고흥점",
    "address": "전라남도 고흥군 도양읍 비봉로 136",
    "tel": "061-842-1993",
    "time": "10:00~21:00 (연중 무휴, 명절 당일 제외)",
    "type": "대리점",
    "lat": 34.52882,
    "lng": 127.13599
  },
  {
    "id": 137,
    "name": "성남직영점",
    "address": "경기도 성남시 수정구 수정로 115(태평동)  ",
    "tel": "031-753-5566",
    "time": "10:00~21:00 (연중 무휴, 명절 당일 제외)",
    "type": "직영점",
    "lat": 37.441578,
    "lng": 127.132972
  },
  {
    "id": 138,
    "name": "모다아울렛구리남양주직영점",
    "address": "경기 구리시 경춘북로 230  모다아울렛구리남양점 3층",
    "tel": "031-514-8554",
    "time": "10:00~21:00 (연중 무휴, 명절 당일 제외)",
    "type": "직영점",
    "lat": 37.633283,
    "lng": 127.116055
  },
  {
    "id": 139,
    "name": "뉴코아일산점",
    "address": "경기도 고양시 일산동구 중앙로 1206(마두동)  뉴코아일산점 지하2층",
    "tel": "031-904-0563",
    "time": "10:00~21:00 (연중 무휴, 명절 당일 제외)",
    "type": "대리점",
    "lat": 35.22867,
    "lng": 128.885223
  },
  {
    "id": 140,
    "name": "모다아울렛곤지암직영점(상설)",
    "address": "경기도 광주시 초월읍 경충대로 907  모다아울렛곤지암점",
    "tel": "031-767-0775",
    "time": "10:00~21:00 (연중 무휴, 명절 당일 제외)",
    "type": "직영점",
    "lat": 37.363295,
    "lng": 127.312568
  },
  {
    "id": 141,
    "name": "세이브존대전직영점",
    "address": "대전광역시 서구 둔산로 201  세이브존대전점",
    "tel": "042-484-6586",
    "time": "10:00~21:00 (연중 무휴, 명절 당일 제외)",
    "type": "직영점",
    "lat": 36.354592,
    "lng": 127.397822
  },
  {
    "id": 142,
    "name": "덕천직영점",
    "address": "부산광역시 북구 만덕대로 11-1(덕천동)  ",
    "tel": "051-911-9192",
    "time": "10:00~21:00 (연중 무휴, 명절 당일 제외)",
    "type": "직영점",
    "lat": 35.210655,
    "lng": 129.006381
  },
  {
    "id": 143,
    "name": "삼패아울렛직영상설점",
    "address": "경기도 남양주시 고산로 237(삼패동)  ",
    "tel": "031-577-9875",
    "time": "10:00~21:00 (연중 무휴, 명절 당일 제외)",
    "type": "직영점",
    "lat": 37.594478,
    "lng": 127.19228
  },
  {
    "id": 144,
    "name": "범내직영점",
    "address": "부산광역시 부산진구 범일로 157-1(범천동)  1층",
    "tel": "051-632-2455",
    "time": "10:00~21:00 (연중 무휴, 명절 당일 제외)",
    "type": "직영점",
    "lat": 35.14424,
    "lng": 129.058992
  },
  {
    "id": 145,
    "name": "강화복합점",
    "address": "인천광역시 강화군 강화읍 강화대로 398  ",
    "tel": "032-934-2565",
    "time": "10:00~21:00 (연중 무휴, 명절 당일 제외)",
    "type": "대리점",
    "lat": 35.22867,
    "lng": 128.885223
  },
  {
    "id": 146,
    "name": "보은점",
    "address": "충청북도 보은군 보은읍 삼산로 13  ",
    "tel": "043-544-1096",
    "time": "10:00~21:00 (연중 무휴, 명절 당일 제외)",
    "type": "대리점",
    "lat": 35.22867,
    "lng": 128.885223
  },
  {
    "id": 147,
    "name": "구미직영점",
    "address": "경상북도 구미시 구미중앙로 84(원평동)  ",
    "tel": "054-452-8356",
    "time": "10:00~21:00 (연중 무휴, 명절 당일 제외)",
    "type": "직영점",
    "lat": 36.128547,
    "lng": 128.331829
  },
  {
    "id": 148,
    "name": "NC순천점",
    "address": "전라남도 순천시 비봉2길 22  NC순천점 1층",
    "tel": "061-720-5945",
    "time": "10:00~21:00 (연중 무휴, 명절 당일 제외)",
    "type": "백화점",
    "lat": 35.22867,
    "lng": 128.885223
  },
  {
    "id": 149,
    "name": "성서상설점",
    "address": "대구광역시 달서구 달서대로85길 10(호림동)  ",
    "tel": "053-581-3222",
    "time": "10:00~21:00 (연중 무휴, 명절 당일 제외)",
    "type": "대리점",
    "lat": 35.22867,
    "lng": 128.885223
  },
  {
    "id": 150,
    "name": "군산수송직영점",
    "address": "전라북도 군산시 월명로 273(수송동)  1층",
    "tel": "063-466-7898",
    "time": "10:00~21:00 (연중 무휴, 명절 당일 제외)",
    "type": "직영점",
    "lat": 35.968436,
    "lng": 126.715209
  },
  {
    "id": 151,
    "name": "NC야탑점",
    "address": "경기도 성남시 분당구 야탑로81번길 11(야탑동)  NC야탑점",
    "tel": "031-709-5389",
    "time": "10:00~21:00 (연중 무휴, 명절 당일 제외)",
    "type": "대리점",
    "lat": 35.22867,
    "lng": 128.885223
  },
  {
    "id": 152,
    "name": "이마트봉선점",
    "address": "광주광역시 남구 봉선로 198(봉선동)  이마트봉선점 2층",
    "tel": "062-675-9988",
    "time": "10:00~21:00 (연중 무휴, 명절 당일 제외)",
    "type": "대리점",
    "lat": 35.22867,
    "lng": 128.885223
  },
  {
    "id": 153,
    "name": "NC부산대점",
    "address": "부산광역시 금정구 부산대학로 63(장전동)  NC부산대점 4층",
    "tel": "051-509-7339",
    "time": "10:00~21:00 (연중 무휴, 명절 당일 제외)",
    "type": "대리점",
    "lat": 35.22867,
    "lng": 128.885223
  },
  {
    "id": 154,
    "name": "뉴코아부천점",
    "address": "경기도 부천시 송내대로 239(상동)  뉴코아부천점 5층",
    "tel": "032-624-7409",
    "time": "10:00~21:00 (연중 무휴, 명절 당일 제외)",
    "type": "백화점",
    "lat": 35.22867,
    "lng": 128.885223
  },
  {
    "id": 155,
    "name": "영주점",
    "address": "경상북도 영주시구성로 353(영주동)  ",
    "tel": "054-631-9003",
    "time": "10:00~21:00 (연중 무휴, 명절 당일 제외)",
    "type": "대리점",
    "lat": 35.22867,
    "lng": 128.885223
  },
  {
    "id": 156,
    "name": "제천직영점",
    "address": "충청북도 제천시 의림대로 119(중앙로1가)  ",
    "tel": "043-644-6444",
    "time": "10:00~21:00 (연중 무휴, 명절 당일 제외)",
    "type": "직영점",
    "lat": 37.138378,
    "lng": 128.210443
  },
  {
    "id": 157,
    "name": "홈플러스시흥점",
    "address": "서울특별시 금천구 시흥대로 201(시흥동)  홈플러스시흥점 1층",
    "tel": "02-805-3144",
    "time": "10:00~21:00 (연중 무휴, 명절 당일 제외)",
    "type": "대리점",
    "lat": 35.22867,
    "lng": 128.885223
  },
  {
    "id": 158,
    "name": "대전유성직영점",
    "address": "대전광역시 유성구 유성대로 787(장대동)  ",
    "tel": "042-824-8535",
    "time": "10:00~21:00 (연중 무휴, 명절 당일 제외)",
    "type": "직영점",
    "lat": 36.362484,
    "lng": 127.336592
  },
  {
    "id": 159,
    "name": "홈플러스동광주점",
    "address": "광주광역시 북구 동문대로 200(두암동)  홈플러스동광주점",
    "tel": "010-5420-0465",
    "time": "10:00~21:00 (연중 무휴, 명절 당일 제외)",
    "type": "대리점",
    "lat": 35.22867,
    "lng": 128.885223
  },
  {
    "id": 160,
    "name": "이마트통영점",
    "address": "경상남도 통영시 광도면 죽림4로 9  이마트통영점 2층",
    "tel": "055-643-2469",
    "time": "10:00~21:00 (연중 무휴, 명절 당일 제외)",
    "type": "대리점",
    "lat": 35.22867,
    "lng": 128.885223
  },
  {
    "id": 161,
    "name": "뉴코아인천점",
    "address": "인천광역시 남동구 인하로 485(구월동)  뉴코아인천점 4층",
    "tel": "032-421-8188",
    "time": "10:00~21:00 (연중 무휴, 명절 당일 제외)",
    "type": "백화점",
    "lat": 37.444252,
    "lng": 126.700733
  },
  {
    "id": 162,
    "name": "이마트안산고잔점",
    "address": "경기도 안산시 단원구 원포공원1로 46(초지동)  이마트안산고잔점 3층",
    "tel": "031-414-4328",
    "time": "10:00~21:00 (연중 무휴, 명절 당일 제외)",
    "type": "대리점",
    "lat": 35.22867,
    "lng": 128.885223
  },
  {
    "id": 163,
    "name": "롯데마트진해점",
    "address": "경상남도 창원시 진해구 진해대로 762(석동)  롯데마트창원점 3층",
    "tel": "055-545-6260",
    "time": "10:00~21:00 (연중 무휴, 명절 당일 제외)",
    "type": "대리점",
    "lat": 35.22867,
    "lng": 128.885223
  },
  {
    "id": 164,
    "name": "뉴코아평택점",
    "address": "경기도 평택시 경기대로 279(비전동)  뉴코아평택점",
    "tel": "031-650-6218",
    "time": "10:00~21:00 (연중 무휴, 명절 당일 제외)",
    "type": "백화점",
    "lat": 36.995439,
    "lng": 127.112529
  },
  {
    "id": 165,
    "name": "롯데아울렛군산점",
    "address": "전라북도 군산시 조촌로 130(조촌동)  롯데아울렛군산점 2층",
    "tel": "063-447-0253",
    "time": "10:00~21:00 (연중 무휴, 명절 당일 제외)",
    "type": "백화점",
    "lat": 35.976456,
    "lng": 126.738597
  },
  {
    "id": 166,
    "name": "이마트속초점",
    "address": "강원도 속초시 설악금강대교로 12(청호동)  이마트속초점",
    "tel": "033-631-5592",
    "time": "10:00~21:00 (연중 무휴, 명절 당일 제외)",
    "type": "대리점",
    "lat": 38.190926,
    "lng": 128.596041
  },
  {
    "id": 167,
    "name": "이마트천안서북점",
    "address": "충청남도 천안시 서북구 삼성대로 20(백석동)  이마트천안서북점 1층",
    "tel": "041-563-7979",
    "time": "10:00~21:00 (연중 무휴, 명절 당일 제외)",
    "type": "대리점",
    "lat": 36.838532,
    "lng": 127.122167
  },
  {
    "id": 168,
    "name": "광주충장로직영점",
    "address": "광주광역시 동구 충장로 64-1(충장로3가)  ",
    "tel": "062-236-0522",
    "time": "10:00~21:00 (연중 무휴, 명절 당일 제외)",
    "type": "직영점",
    "lat": 35.149271,
    "lng": 126.914643
  },
  {
    "id": 169,
    "name": "대전은행직영점",
    "address": "대전광역시 중구 중앙로 165-1(은행동)  ",
    "tel": "042-222-9188",
    "time": "10:00~21:00 (연중 무휴, 명절 당일 제외)",
    "type": "직영점",
    "lat": 36.329617,
    "lng": 127.427788
  },
  {
    "id": 170,
    "name": "현대시티아울렛대구점",
    "address": "대구광역시 동구 동대구로 454(신천동)  현대시티아울렛대구점",
    "tel": "053-430-2256",
    "time": "10:00~21:00 (연중 무휴, 명절 당일 제외)",
    "type": "대리점",
    "lat": 35.22867,
    "lng": 128.885223
  },
  {
    "id": 171,
    "name": "한성몰남양주점",
    "address": "경기도 남양주시 화도읍 경춘로 1725  ",
    "tel": "031-931-1514",
    "time": "10:00~21:00 (연중 무휴, 명절 당일 제외)",
    "type": "대리점",
    "lat": 35.22867,
    "lng": 128.885223
  },
  {
    "id": 172,
    "name": "모다아울렛울산점",
    "address": "울산광역시 북구 진장유통로 78-6(진장동)  모다아울렛울산점",
    "tel": "052-935-3062",
    "time": "10:00~21:00 (연중 무휴, 명절 당일 제외)",
    "type": "대리점",
    "lat": 35.22867,
    "lng": 128.885223
  },
  {
    "id": 173,
    "name": "모다아울렛천안아산점",
    "address": "충남 천안시 서북구 공원로 196 펜타포트  모다아울렛천안아산점",
    "tel": "041-904-0106",
    "time": "10:00~21:00 (연중 무휴, 명절 당일 제외)",
    "type": "대리점",
    "lat": 35.22867,
    "lng": 128.885223
  },
  {
    "id": 174,
    "name": "모다아울렛인천점",
    "address": "인천광역시 서구 북항로32번안길 50(원창동)  모다아울렛인천점",
    "tel": "032-288-7710",
    "time": "10:00~21:00 (연중 무휴, 명절 당일 제외)",
    "type": "대리점",
    "lat": 35.22867,
    "lng": 128.885223
  },
  {
    "id": 175,
    "name": "이마트청계천점",
    "address": "서울특별시 중구 청계천로 400 이마트청계천점  이마트청계천점 지하1층",
    "tel": "02-2048-5833",
    "time": "10:00~21:00 (연중 무휴, 명절 당일 제외)",
    "type": "대리점",
    "lat": 35.22867,
    "lng": 128.885223
  },
  {
    "id": 176,
    "name": "대동아울렛창원점",
    "address": "경상남도 창원시 성산구 가음로 100(가음동)  ",
    "tel": "055-213-8722",
    "time": "10:00~21:00 (연중 무휴, 명절 당일 제외)",
    "type": "대리점",
    "lat": 35.22867,
    "lng": 128.885223
  },
  {
    "id": 177,
    "name": "NC서면점",
    "address": "부산광역시 부산진구 동천로 92(전포동)  NC서면점",
    "tel": "051-794-7148",
    "time": "10:00~21:00 (연중 무휴, 명절 당일 제외)",
    "type": "백화점",
    "lat": 35.22867,
    "lng": 128.885223
  },
  {
    "id": 178,
    "name": "통영점",
    "address": "경상남도 통영시 중앙로138(항남동)  ",
    "tel": "055-648-4438",
    "time": "10:00~21:00 (연중 무휴, 명절 당일 제외)",
    "type": "대리점",
    "lat": 35.22867,
    "lng": 128.885223
  },
  {
    "id": 179,
    "name": "세이브존울산점",
    "address": "울산광역시 남구 번영로250번길 9(삼산동)  세이브존울산점",
    "tel": "052-268-3477",
    "time": "10:00~21:00 (연중 무휴, 명절 당일 제외)",
    "type": "대리점",
    "lat": 35.22867,
    "lng": 128.885223
  },
  {
    "id": 180,
    "name": "순천중앙점",
    "address": "전라남도 순천시 시민로37-1(남내동)  ",
    "tel": "061-752-9999",
    "time": "10:00~21:00 (연중 무휴, 명절 당일 제외)",
    "type": "대리점",
    "lat": 35.22867,
    "lng": 128.885223
  },
  {
    "id": 181,
    "name": "신세계김해점",
    "address": "경상남도 김해시 김해대로 2232(외동)  신세계김해점 3층",
    "tel": "055-272-1533",
    "time": "10:00~21:00 (연중 무휴, 명절 당일 제외)",
    "type": "백화점",
    "lat": 35.22867,
    "lng": 128.885223
  },
  {
    "id": 182,
    "name": "NC수원터미널점",
    "address": "경기도 수원시 권선구 경수대로 270(권선동)  NC수원터미널점",
    "tel": "031-267-6200",
    "time": "10:00~21:00 (연중 무휴, 명절 당일 제외)",
    "type": "백화점",
    "lat": 35.22867,
    "lng": 128.885223
  },
  {
    "id": 183,
    "name": "영천점",
    "address": "경상북도 영천시 시장로 48-1(완산동)  ",
    "tel": "054-334-2900",
    "time": "10:00~21:00 (연중 무휴, 명절 당일 제외)",
    "type": "대리점",
    "lat": 35.22867,
    "lng": 128.885223
  },
  {
    "id": 184,
    "name": "김천점",
    "address": "경상북도 김천시 김천로 130-2 (평화동)  ",
    "tel": "054-433-3131",
    "time": "10:00~21:00 (연중 무휴, 명절 당일 제외)",
    "type": "대리점",
    "lat": 35.22867,
    "lng": 128.885223
  },
  {
    "id": 185,
    "name": "홈플러스칠곡점",
    "address": "대구광역시 북구 동암로12길 8(동천동)  홈플러스칠곡점",
    "tel": "053-325-4740",
    "time": "10:00~21:00 (연중 무휴, 명절 당일 제외)",
    "type": "대리점",
    "lat": 35.22867,
    "lng": 128.885223
  },
  {
    "id": 186,
    "name": "삼척점",
    "address": "강원도 삼척시 척주로 26(남양동)  104호",
    "tel": "033-573-4441",
    "time": "10:00~21:00 (연중 무휴, 명절 당일 제외)",
    "type": "대리점",
    "lat": 35.22867,
    "lng": 128.885223
  },
  {
    "id": 187,
    "name": "신세계센텀점",
    "address": "부산광역시 해운대구 센텀남대로 35(우동)  신세계센텀점",
    "tel": "051-745-1658",
    "time": "10:00~21:00 (연중 무휴, 명절 당일 제외)",
    "type": "백화점",
    "lat": 35.22867,
    "lng": 128.885223
  },
  {
    "id": 188,
    "name": "모다아울렛행담도점",
    "address": "충청남도 당진시 신평면 서해안고속도로 276  모다아울렛행담도점",
    "tel": "041-970-2041",
    "time": "10:00~21:00 (연중 무휴, 명절 당일 제외)",
    "type": "대리점",
    "lat": 35.22867,
    "lng": 128.885223
  },
  {
    "id": 189,
    "name": "신세계하남점",
    "address": "경기도 하남시 미사대로 750(신장동)  신세계하남점",
    "tel": "031-8072-1927",
    "time": "10:00~21:00 (연중 무휴, 명절 당일 제외)",
    "type": "백화점",
    "lat": 35.22867,
    "lng": 128.885223
  },
  {
    "id": 190,
    "name": "포천송우복합점",
    "address": "경기도 포천시 소흘읍 호국로 445  ",
    "tel": "031-543-1626",
    "time": "10:00~21:00 (연중 무휴, 명절 당일 제외)",
    "type": "대리점",
    "lat": 35.22867,
    "lng": 128.885223
  },
  {
    "id": 191,
    "name": "원주점",
    "address": "강원도 원주시 원일로 127(일산동)  ",
    "tel": "033-746-9339",
    "time": "10:00~21:00 (연중 무휴, 명절 당일 제외)",
    "type": "대리점",
    "lat": 37.350593,
    "lng": 127.947807
  },
  {
    "id": 192,
    "name": "롯데대구점",
    "address": "대구광역시 북구 태평로 161(칠성동2가)  롯데대구점",
    "tel": "053-660-3549",
    "time": "10:00~21:00 (연중 무휴, 명절 당일 제외)",
    "type": "백화점",
    "lat": 35.22867,
    "lng": 128.885223
  },
  {
    "id": 193,
    "name": "공주점",
    "address": "충청남도 공주시 웅진로 158(중동)  ",
    "tel": "041-855-2364",
    "time": "10:00~21:00 (연중 무휴, 명절 당일 제외)",
    "type": "대리점",
    "lat": 35.22867,
    "lng": 128.885223
  },
  {
    "id": 194,
    "name": "롯데마트부평점",
    "address": "인천광역시 부평구 마장로 296(산곡동)  롯데마트부평점 1층",
    "tel": "032-511-8211",
    "time": "10:00~21:00 (연중 무휴, 명절 당일 제외)",
    "type": "대리점",
    "lat": 35.22867,
    "lng": 128.885223
  },
  {
    "id": 195,
    "name": "마리오아울렛가산직영점",
    "address": "서울특별시 금천구 디지털로9길 23(가산동)  2관 3층",
    "tel": "02-2067-2125",
    "time": "10:00~21:00 (연중 무휴, 명절 당일 제외)",
    "type": "직영점",
    "lat": 37.478781,
    "lng": 126.886788
  },
  {
    "id": 196,
    "name": "이마트안양점",
    "address": "경기도 안양시 동안구 관악대로 104(비산동)  이마트안양점",
    "tel": "070-7758-3425",
    "time": "10:00~21:00 (연중 무휴, 명절 당일 제외)",
    "type": "대리점",
    "lat": 35.22867,
    "lng": 128.885223
  },
  {
    "id": 197,
    "name": "NC강서점",
    "address": "서울특별시 강서구 강서로56길 17(등촌동)  NC 강서점",
    "tel": "02-2667-9705",
    "time": "10:00~21:00 (연중 무휴, 명절 당일 제외)",
    "type": "백화점",
    "lat": 35.22867,
    "lng": 128.885223
  },
  {
    "id": 198,
    "name": "김해진영상설점",
    "address": "경상남도 김해시 진영읍 진산대로 205  그린상가4호",
    "tel": "055-346-7330",
    "time": "10:00~21:00 (연중 무휴, 명절 당일 제외)",
    "type": "대리점",
    "lat": 35.22867,
    "lng": 128.885223
  },
  {
    "id": 199,
    "name": "평택복합점",
    "address": "경기도 평택시 경기대로 945(장당동)  2층",
    "tel": "031-612-9120",
    "time": "10:00~21:00 (연중 무휴, 명절 당일 제외)",
    "type": "대리점",
    "lat": 35.22867,
    "lng": 128.885223
  },
  {
    "id": 200,
    "name": "이마트문현점",
    "address": "부산광역시 남구 전포대로91번길 47(문현동)  이마트문현점 3층",
    "tel": "051-632-3542",
    "time": "10:00~21:00 (연중 무휴, 명절 당일 제외)",
    "type": "대리점",
    "lat": 35.22867,
    "lng": 128.885223
  },
  {
    "id": 201,
    "name": "롯데마산점",
    "address": "경상남도 창원시 마산합포구 동서동로 18(신포동2가)  롯데마산점",
    "tel": "055-240-5466",
    "time": "10:00~21:00 (연중 무휴, 명절 당일 제외)",
    "type": "백화점",
    "lat": 35.22867,
    "lng": 128.885223
  },
  {
    "id": 202,
    "name": "이마트창원점",
    "address": "경상남도 창원시 성산구 원이대로 608(중앙동)  이마트창원점 2층",
    "tel": "055-281-4273",
    "time": "10:00~21:00 (연중 무휴, 명절 당일 제외)",
    "type": "대리점",
    "lat": 35.22867,
    "lng": 128.885223
  },
  {
    "id": 203,
    "name": "죽전직영점",
    "address": "경기도 용인시 수지구 용구대로 2757(죽전동)  1층",
    "tel": "031-265-1100",
    "time": "10:00~21:00 (연중 무휴, 명절 당일 제외)",
    "type": "직영점",
    "lat": 37.331796,
    "lng": 127.108363
  },
  {
    "id": 204,
    "name": "오천점",
    "address": "경상북도 포항시 남구 오천읍 정몽주로 664  ",
    "tel": "054-291-9498",
    "time": "10:00~21:00 (연중 무휴, 명절 당일 제외)",
    "type": "대리점",
    "lat": 35.97713,
    "lng": 129.413438
  },
  {
    "id": 205,
    "name": "동아수성점",
    "address": "대구광역시 수성구 지범로 191(범물동)  동아수성점",
    "tel": "053-783-6228",
    "time": "10:00~21:00 (연중 무휴, 명절 당일 제외)",
    "type": "백화점",
    "lat": 35.821081,
    "lng": 128.640364
  },
  {
    "id": 206,
    "name": "현대울산점",
    "address": "울산광역시 남구 삼산로 261(삼산동)  현대울산점",
    "tel": "052-228-0616",
    "time": "10:00~21:00 (연중 무휴, 명절 당일 제외)",
    "type": "백화점",
    "lat": 35.539696,
    "lng": 129.335839
  },
  {
    "id": 207,
    "name": "롯데아울렛광교점",
    "address": "경기도 수원시 영통구 도청로 10(이의동)  롯데아울렛광교점 2층",
    "tel": "031-8064-2247",
    "time": "10:00~21:00 (연중 무휴, 명절 당일 제외)",
    "type": "백화점",
    "lat": 37.286231,
    "lng": 127.055906
  },
  {
    "id": 208,
    "name": "용산직영점",
    "address": "서울특별시 용산구 한강대로 92(한강로2가)  B1층",
    "tel": "02-797-3100",
    "time": "평일 09:00 ~ 20:00 / 토요일 11:00 ~ 18:00 (공휴일/일요일 휴무)",
    "type": "직영점",
    "lat": 37.528179,
    "lng": 126.967952
  },
  {
    "id": 209,
    "name": "원주복합점",
    "address": "강원도 원주시 원일로 61(원동)  ",
    "tel": "033-745-2574",
    "time": "10:00~21:00 (연중 무휴, 명절 당일 제외)",
    "type": "대리점",
    "lat": 35.22867,
    "lng": 128.885223
  },
  {
    "id": 210,
    "name": "계산점",
    "address": "인천광역시 계양구 계양대로 189(계산동)  1층",
    "tel": "032-212-0138",
    "time": "10:00~21:00 (연중 무휴, 명절 당일 제외)",
    "type": "대리점",
    "lat": 35.22867,
    "lng": 128.885223
  },
  {
    "id": 211,
    "name": "홈플러스인하점",
    "address": "인천광역시 미추홀구 소성로 6(용현동)  홈플러스인하점 1층",
    "tel": "032-874-2188",
    "time": "10:00~21:00 (연중 무휴, 명절 당일 제외)",
    "type": "대리점",
    "lat": 35.22867,
    "lng": 128.885223
  },
  {
    "id": 212,
    "name": "뉴코아강남점",
    "address": "서울특별시 서초구 잠원로 51(잠원동)  뉴코아백화점강남점 4층",
    "tel": "02-530-5952",
    "time": "10:00~21:00 (연중 무휴, 명절 당일 제외)",
    "type": "대리점",
    "lat": 35.22867,
    "lng": 128.885223
  },
  {
    "id": 213,
    "name": "홈플러스구미직영상설점",
    "address": "경상북도 구미시 구미대로 174(광평동)  홈플러스구미점",
    "tel": "054-462-2944",
    "time": "10:00~21:00 (연중 무휴, 명절 당일 제외)",
    "type": "직영점",
    "lat": 36.102776,
    "lng": 128.363775
  },
  {
    "id": 214,
    "name": "롯데마트장암점",
    "address": "경기도 의정부시 장곡로 224(장암동)  롯데마트장암점 1층",
    "tel": "031-877-3863",
    "time": "10:00~21:00 (연중 무휴, 명절 당일 제외)",
    "type": "대리점",
    "lat": 35.22867,
    "lng": 128.885223
  },
  {
    "id": 215,
    "name": "홈플러스세종점",
    "address": "세종특별자치시 절재로 154(어진동)  홈플러스세종점 2층",
    "tel": "010-8670-0883",
    "time": "10:00~21:00 (연중 무휴, 명절 당일 제외)",
    "type": "대리점",
    "lat": 36.507313,
    "lng": 127.258853
  },
  {
    "id": 216,
    "name": "모다아울렛김천구미점",
    "address": "경상북도 김천시 아포읍 아포대로 1417  모다아울렛김천구미점",
    "tel": "054-910-5074",
    "time": "10:00~21:00 (연중 무휴, 명절 당일 제외)",
    "type": "대리점",
    "lat": 35.22867,
    "lng": 128.885223
  },
  {
    "id": 217,
    "name": "전주인후점",
    "address": "전라북도 전주시 덕진구 견훤로 298(인후동1가)  1층",
    "tel": "063-244-9358",
    "time": "10:00~21:00 (연중 무휴, 명절 당일 제외)",
    "type": "대리점",
    "lat": 35.22867,
    "lng": 128.885223
  },
  {
    "id": 218,
    "name": "롯데마트의왕상설점",
    "address": "경기도 의왕시 계원대학로 7(내손동)  롯데마트의왕점 2층",
    "tel": "010-5255-1609",
    "time": "10:00~21:00 (연중 무휴, 명절 당일 제외)",
    "type": "대리점",
    "lat": 35.22867,
    "lng": 128.885223
  },
  {
    "id": 219,
    "name": "롯데아울렛남악점",
    "address": "전라남도 무안군 삼향읍 남악로162번길 80  롯데아울렛남악점 2층",
    "tel": "061-801-2233",
    "time": "10:00~21:00 (연중 무휴, 명절 당일 제외)",
    "type": "직영점",
    "lat": 34.802513,
    "lng": 126.465245
  },
  {
    "id": 220,
    "name": "메가마트동래점",
    "address": "부산광역시 동래구 충렬대로 197(명륜동)  메가마트동래점",
    "tel": "051-558-0591",
    "time": "10:00~21:00 (연중 무휴, 명절 당일 제외)",
    "type": "대리점",
    "lat": 35.22867,
    "lng": 128.885223
  },
  {
    "id": 221,
    "name": "현대시티아울렛대구점",
    "address": "대구광역시 동구 동대구로 454(신천동)  현대시티아울렛대구점",
    "tel": "053-430-2256",
    "time": "10:00~21:00 (연중 무휴, 명절 당일 제외)",
    "type": "직영점",
    "lat": 35.871133,
    "lng": 128.626282
  },
  {
    "id": 222,
    "name": "퍼스트빌리지아산점",
    "address": "충청남도 아산시 둔포면 해위안길 127  퍼스트빌리지아산점 3층",
    "tel": "041-536-0687",
    "time": "10:00~21:00 (연중 무휴, 명절 당일 제외)",
    "type": "대리점",
    "lat": 35.22867,
    "lng": 128.885223
  },
  {
    "id": 223,
    "name": "세이브존부천상동직영점",
    "address": "경기도 부천시 길주로 105(상동)  세이브존부천상동점 1층",
    "tel": "010-8636-6584",
    "time": "10:00~21:00 (연중 무휴, 명절 당일 제외)",
    "type": "직영점",
    "lat": 37.506391,
    "lng": 126.75381
  },
  {
    "id": 224,
    "name": "천안아울렛직영상설점",
    "address": "충청남도 천안시 동남구 천안대로 364(삼룡동)  ",
    "tel": "041-558-6708",
    "time": "10:00~21:00 (연중 무휴, 명절 당일 제외)",
    "type": "직영점",
    "lat": 36.780574,
    "lng": 127.165832
  },
  {
    "id": 225,
    "name": "홈플러스성서점",
    "address": "대구광역시 달서구 달구벌대로 1467(용산동)  홈플러스성서점 지하1층",
    "tel": "053-523-3623",
    "time": "10:00~21:00 (연중 무휴, 명절 당일 제외)",
    "type": "대리점",
    "lat": 35.22867,
    "lng": 128.885223
  },
  {
    "id": 226,
    "name": "홈플러스북수원점",
    "address": "경기도 수원시 장안구 경수대로 930(조원동)  홈플러스북수원점 3층",
    "tel": "031-242-6514",
    "time": "10:00~21:00 (연중 무휴, 명절 당일 제외)",
    "type": "대리점",
    "lat": 35.22867,
    "lng": 128.885223
  },
  {
    "id": 227,
    "name": "평창점",
    "address": "강원도 평창군 평창읍 평창중앙로 24",
    "tel": "033-333-3338",
    "time": "10:00~21:00 (연중 무휴, 명절 당일 제외)",
    "type": "대리점",
    "lat": 37.366974,
    "lng": 128.39566
  },
  {
    "id": 228,
    "name": "이마트서귀포점",
    "address": "제주특별자치도 서귀포시 일주동로 9209(법환동)  이마트서귀포점 1층",
    "tel": "064-739-5589",
    "time": "10:00~21:00 (연중 무휴, 명절 당일 제외)",
    "type": "대리점",
    "lat": 33.248227,
    "lng": 126.509368
  },
  {
    "id": 229,
    "name": "NC송파점",
    "address": "서울특별시 송파구 충민로 66(문정동)  NC송파점 1층",
    "tel": "02-2157-5553",
    "time": "10:00~21:00 (연중 무휴, 명절 당일 제외)",
    "type": "대리점",
    "lat": 35.22867,
    "lng": 128.885223
  },
  {
    "id": 230,
    "name": "롯데스타시티점",
    "address": "서울특별시 광진구 능동로 92(자양동)  롯데스타시티점",
    "tel": "02-2218-3790",
    "time": "10:00~21:00 (연중 무휴, 명절 당일 제외)",
    "type": "백화점",
    "lat": 35.22867,
    "lng": 128.885223
  },
  {
    "id": 231,
    "name": "거제옥포점",
    "address": "경상남도 거제시 옥포대첩로 36-1(옥포동)",
    "tel": "055-687-7066",
    "time": "10:00~21:00 (연중 무휴, 명절 당일 제외)",
    "type": "대리점",
    "lat": 34.893529,
    "lng": 128.691653
  },
  {
    "id": 232,
    "name": "롯데마트충주점",
    "address": "충청북도 충주시 봉계1길 49(칠금동)  롯데마트충주점 2층",
    "tel": "043-852-1689",
    "time": "10:00~21:00 (연중 무휴, 명절 당일 제외)",
    "type": "대리점",
    "lat": 36.98176,
    "lng": 127.91459
  },
  {
    "id": 233,
    "name": "이마트금정점",
    "address": "부산광역시 금정구 중앙대로1841번길 24(구서동)  이마트금정점 2층",
    "tel": "051-583-0554",
    "time": "10:00~21:00 (연중 무휴, 명절 당일 제외)",
    "type": "대리점",
    "lat": 35.22867,
    "lng": 128.885223
  },
  {
    "id": 234,
    "name": "타임스트림신림직영점",
    "address": "서울특별시 관악구 신림로 330(신림동)  타임스트림 5층",
    "tel": "02-877-6766",
    "time": "10:00~21:00 (연중 무휴, 명절 당일 제외)",
    "type": "직영점",
    "lat": 37.483761,
    "lng": 126.930005
  },
  {
    "id": 235,
    "name": "뉴코아동수원점",
    "address": "경기도 수원시 팔달구 인계로 154(인계동)  뉴코아동수원점",
    "tel": "031-231-6578",
    "time": "10:00~21:00 (연중 무휴, 명절 당일 제외)",
    "type": "백화점",
    "lat": 35.22867,
    "lng": 128.885223
  },
  {
    "id": 236,
    "name": "홈플러스동수원점",
    "address": "경기도 수원시 팔달구 효원로 257(인계동)  홈플러스동수원점 1층",
    "tel": "010-9045-8570",
    "time": "10:00~21:00 (연중 무휴, 명절 당일 제외)",
    "type": "대리점",
    "lat": 35.22867,
    "lng": 128.885223
  },
  {
    "id": 237,
    "name": "뉴코아괴정점",
    "address": "부산광역시 사하구 사하로 190(괴정동)  뉴코아괴정점 5층",
    "tel": "010-9583-1582",
    "time": "10:00~21:00 (연중 무휴, 명절 당일 제외)",
    "type": "대리점",
    "lat": 35.22867,
    "lng": 128.885223
  },
  {
    "id": 238,
    "name": "메가마트김해점(상설)",
    "address": "경상남도 김해시 김해대로2492번길 20(삼정동)  메가마트김해점2층",
    "tel": "010-2771-0468",
    "time": "10:00~21:00 (연중 무휴, 명절 당일 제외)",
    "type": "대리점",
    "lat": 35.22867,
    "lng": 128.885223
  },
  {
    "id": 239,
    "name": "대전판암점",
    "address": "대전광역시 동구 옥천로 135(판암동)  1층",
    "tel": "042-635-8421",
    "time": "10:00~21:00 (연중 무휴, 명절 당일 제외)",
    "type": "대리점",
    "lat": 35.22867,
    "lng": 128.885223
  },
  {
    "id": 240,
    "name": "조치원점",
    "address": "세종특별자치시 조치원읍 조치원4길 6  ",
    "tel": "044-865-2074",
    "time": "10:00~21:00 (연중 무휴, 명절 당일 제외)",
    "type": "대리점",
    "lat": 35.22867,
    "lng": 128.885223
  },
  {
    "id": 241,
    "name": "2001중계점",
    "address": "서울특별시 노원구 동일로204가길 46(중계동)  2001중계점 지하1층",
    "tel": "02-3399-8437",
    "time": "10:00~21:00 (연중 무휴, 명절 당일 제외)",
    "type": "백화점",
    "lat": 35.22867,
    "lng": 128.885223
  },
  {
    "id": 242,
    "name": "안산한대점",
    "address": "경기도 안산시 상록구 삼리로 38(사동)  1층",
    "tel": "031-417-3025",
    "time": "10:00~21:00 (연중 무휴, 명절 당일 제외)",
    "type": "대리점",
    "lat": 35.22867,
    "lng": 128.885223
  },
  {
    "id": 243,
    "name": "홈플러스울산점",
    "address": "울산광역시 중구 번영로475(북산동 100)  홈플러스울산점",
    "tel": "010-8948-3127",
    "time": "10:00~21:00 (연중 무휴, 명절 당일 제외)",
    "type": "대리점",
    "lat": 35.22867,
    "lng": 128.885223
  },
  {
    "id": 244,
    "name": "홈플러스금천아울렛점",
    "address": "서울특별시 금천구 시흥대로 391(독산동)  홈플러스금천점 1층",
    "tel": "02-807-4969",
    "time": "10:00~21:00 (연중 무휴, 명절 당일 제외)",
    "type": "대리점",
    "lat": 35.22867,
    "lng": 128.885223
  },
  {
    "id": 245,
    "name": "대구이시아점",
    "address": "대구광역시 동구 팔공로49길 51(봉무동)  1층",
    "tel": "053-985-1131",
    "time": "10:00~21:00 (연중 무휴, 명절 당일 제외)",
    "type": "대리점",
    "lat": 35.22867,
    "lng": 128.885223
  },
  {
    "id": 246,
    "name": "종로팩토리아울렛",
    "address": "서울특별시 종로구 종로 322(창신동)  ",
    "tel": "02-766-8575",
    "time": "10:00~21:00 (연중 무휴, 명절 당일 제외)",
    "type": "대리점",
    "lat": 35.22867,
    "lng": 128.885223
  },
  {
    "id": 247,
    "name": "부전시장팩토리아울렛",
    "address": "부산광역시 부산진구 새싹로14번길 27(부전동)  ",
    "tel": "051-817-6065",
    "time": "10:00~21:00 (연중 무휴, 명절 당일 제외)",
    "type": "대리점",
    "lat": 35.22867,
    "lng": 128.885223
  },
  {
    "id": 248,
    "name": "타임테라스 동탄직영점",
    "address": "경기도 화성시 동탄중앙로 220  상가동 106호(반송동, 메타폴리스)",
    "tel": "010-5846-3200",
    "time": "10:00~21:00 (연중 무휴, 명절 당일 제외)",
    "type": "직영점",
    "lat": 37.204932,
    "lng": 127.06887
  },
  {
    "id": 249,
    "name": "왜관점",
    "address": "경상북도 칠곡군 왜관읍 중앙로 180-1  1층",
    "tel": "054-974-1645",
    "time": "10:00~21:00 (연중 무휴, 명절 당일 제외)",
    "type": "대리점",
    "lat": 35.22867,
    "lng": 128.885223
  },
  {
    "id": 250,
    "name": "수원영통점",
    "address": "경기도 용인시 기흥구 중부대로 64(영덕동)  A동 1층 1-006호",
    "tel": "031-273-4559",
    "time": "10:00~21:00 (연중 무휴, 명절 당일 제외)",
    "type": "대리점",
    "lat": 35.22867,
    "lng": 128.885223
  },
  {
    "id": 251,
    "name": "이마트자양점",
    "address": "서울특별시 광진구 아차산로 272 이마트자양점  이마트자양점 지하1층",
    "tel": "02-3432-1070",
    "time": "10:00~21:00 (연중 무휴, 명절 당일 제외)",
    "type": "대리점",
    "lat": 35.22867,
    "lng": 128.885223
  },
  {
    "id": 252,
    "name": "진천점",
    "address": "충청북도 진천군 진천읍 중앙동로 64  ",
    "tel": "043-533-2513",
    "time": "10:00~21:00 (연중 무휴, 명절 당일 제외)",
    "type": "대리점",
    "lat": 35.22867,
    "lng": 128.885223
  },
  {
    "id": 253,
    "name": "경주점",
    "address": "경상북도 경주시 중앙로40(노동동)  ",
    "tel": "054-749-8787",
    "time": "10:00~21:00 (연중 무휴, 명절 당일 제외)",
    "type": "대리점",
    "lat": 35.22867,
    "lng": 128.885223
  },
  {
    "id": 254,
    "name": "롯데관악직영점",
    "address": "서울특별시 관악구 봉천로 209(봉천동)  롯데관악점 5층",
    "tel": "02-3289-8577",
    "time": "10:00~21:00 (연중 무휴, 명절 당일 제외)",
    "type": "직영점",
    "lat": 37.490524,
    "lng": 126.925035
  },
  {
    "id": 255,
    "name": "논산점",
    "address": "충청남도 논산시 중앙로480번길 4-1(반월동)  ",
    "tel": "041-735-9001",
    "time": "10:00~21:00 (연중 무휴, 명절 당일 제외)",
    "type": "대리점",
    "lat": 35.22867,
    "lng": 128.885223
  },
  {
    "id": 256,
    "name": "홈플러스김해아울렛점",
    "address": "경상남도 김해시 김해대로 2078(내동)  홈플러스김해점 1층",
    "tel": "055-325-0573",
    "time": "10:00~21:00 (연중 무휴, 명절 당일 제외)",
    "type": "대리점",
    "lat": 35.22867,
    "lng": 128.885223
  },
  {
    "id": 257,
    "name": "해남점",
    "address": "전라남도 해남군 해남읍 중앙2로 11",
    "tel": "061-536-8588",
    "time": "10:00~21:00 (연중 무휴, 명절 당일 제외)",
    "type": "대리점",
    "lat": 34.571346,
    "lng": 126.598769
  },
  {
    "id": 258,
    "name": "롯데평촌점",
    "address": "경기도 안양시 동안구 시민대로 180(호계동)  롯데평촌점",
    "tel": "031-8086-9581",
    "time": "10:00~21:00 (연중 무휴, 명절 당일 제외)",
    "type": "백화점",
    "lat": 37.390409,
    "lng": 126.95086
  },
  {
    "id": 259,
    "name": "창녕중앙점",
    "address": "경상남도 창녕군 창녕읍 종로 35  1층 101호",
    "tel": "055-532-0808",
    "time": "10:00~21:00 (연중 무휴, 명절 당일 제외)",
    "type": "대리점",
    "lat": 35.540498,
    "lng": 128.499667
  },
  {
    "id": 260,
    "name": "광주용봉점",
    "address": "광주광역시 북구 설죽로175번길 4(용봉동)  1,2층",
    "tel": "062-528-8812",
    "time": "10:00~21:00 (연중 무휴, 명절 당일 제외)",
    "type": "대리점",
    "lat": 35.175738,
    "lng": 126.896359
  },
  {
    "id": 261,
    "name": "중곡점",
    "address": "서울특별시 광진구 용마산로 45(중곡동)  ",
    "tel": "02-454-7112",
    "time": "10:00~21:00 (연중 무휴, 명절 당일 제외)",
    "type": "대리점",
    "lat": 35.22867,
    "lng": 128.885223
  },
  {
    "id": 262,
    "name": "홈플러스동래점",
    "address": "부산광역시 동래구 중앙대로 1523(온천동)  홈플러스동래점 지하2층",
    "tel": "051-553-3933",
    "time": "10:00~21:00 (연중 무휴, 명절 당일 제외)",
    "type": "대리점",
    "lat": 35.22867,
    "lng": 128.885223
  },
  {
    "id": 263,
    "name": "진주도동점",
    "address": "경상남도 진주시 대신로342(하대동)  ",
    "tel": "055-753-4437",
    "time": "10:00~21:00 (연중 무휴, 명절 당일 제외)",
    "type": "대리점",
    "lat": 35.190926,
    "lng": 128.117008
  },
  {
    "id": 264,
    "name": "모다아울렛순천직영점",
    "address": "전라남도 순천시 해룡면 상성길 70  모다아울렛순천점",
    "tel": "061-902-8023",
    "time": "10:00~21:00 (연중 무휴, 명절 당일 제외)",
    "type": "직영점",
    "lat": 34.925874,
    "lng": 127.544376
  },
  {
    "id": 265,
    "name": "아트몰링부산점",
    "address": "부산광역시 사하구 낙동남로 1413(하단동)  아트몰링부산점 5층",
    "tel": "051-999-7478",
    "time": "10:00~21:00 (연중 무휴, 명절 당일 제외)",
    "type": "대리점",
    "lat": 35.22867,
    "lng": 128.885223
  },
  {
    "id": 266,
    "name": "모다아울렛경주점",
    "address": "경상북도 경주시 천북면 산업로 4930  모다아울렛경주점",
    "tel": "054-620-0122",
    "time": "10:00~21:00 (연중 무휴, 명절 당일 제외)",
    "type": "대리점",
    "lat": 35.22867,
    "lng": 128.885223
  },
  {
    "id": 267,
    "name": "안산원곡점",
    "address": "경기도 안산시 단원구 다문화길 29(원곡동)  1층",
    "tel": "031-495-8794",
    "time": "10:00~21:00 (연중 무휴, 명절 당일 제외)",
    "type": "대리점",
    "lat": 35.22867,
    "lng": 128.885223
  },
  {
    "id": 268,
    "name": "뉴코아창원점",
    "address": "경상남도 창원시 의창구 창원대로397번길 6(팔용동)  뉴코아아울렛 지하1층",
    "tel": "055-270-3500",
    "time": "10:00~21:00 (연중 무휴, 명절 당일 제외)",
    "type": "대리점",
    "lat": 35.22867,
    "lng": 128.885223
  },
  {
    "id": 269,
    "name": "NC불광점",
    "address": "서울특별시 은평구 불광로 20(대조동)  NC 불광점 5층",
    "tel": "02-350-8002",
    "time": "10:00~21:00 (연중 무휴, 명절 당일 제외)",
    "type": "대리점",
    "lat": 35.22867,
    "lng": 128.885223
  },
  {
    "id": 270,
    "name": "롯데아울렛은평점",
    "address": "서울특별시 은평구 통일로 1050(진관동)  롯데아울렛은평점 2층",
    "tel": "010-4135-1612",
    "time": "10:00~21:00 (연중 무휴, 명절 당일 제외)",
    "type": "직영점",
    "lat": 37.639202,
    "lng": 126.919161
  },
  {
    "id": 271,
    "name": "시티아일랜드홍성",
    "address": "충청남도 홍성군 홍성읍 조양로247번길 9  시티아일랜드홍성 2층",
    "tel": "041-630-7413",
    "time": "10:00~21:00 (연중 무휴, 명절 당일 제외)",
    "type": "대리점",
    "lat": 36.601056,
    "lng": 126.676276
  },
  {
    "id": 272,
    "name": "응암점",
    "address": "서울특별시 은평구 응암로184-1(응암동)  ",
    "tel": "02-305-2667",
    "time": "10:00~21:00 (연중 무휴, 명절 당일 제외)",
    "type": "대리점",
    "lat": 35.22867,
    "lng": 128.885223
  },
  {
    "id": 273,
    "name": "홈플러스영등포점",
    "address": "서울특별시 영등포구 당산로 42(문래동3가)  홈플러스영등포점 3층",
    "tel": "02-2677-5090",
    "time": "10:00~21:00 (연중 무휴, 명절 당일 제외)",
    "type": "대리점",
    "lat": 35.22867,
    "lng": 128.885223
  },
  {
    "id": 274,
    "name": "신선도원몰울산점",
    "address": "울산광역시 북구 진장17길 10(진장동)  신선도원몰 1층",
    "tel": "052-916-0171",
    "time": "10:00~21:00 (연중 무휴, 명절 당일 제외)",
    "type": "대리점",
    "lat": 35.22867,
    "lng": 128.885223
  },
  {
    "id": 275,
    "name": "퀸스로드복합점",
    "address": "대구광역시 서구 평리로35길 18-14  A동 102호(중리동)",
    "tel": "053-522-2322",
    "time": "10:00~21:00 (연중 무휴, 명절 당일 제외)",
    "type": "대리점",
    "lat": 35.22867,
    "lng": 128.885223
  },
  {
    "id": 276,
    "name": "NC고잔점",
    "address": "경기도 안산시 단원구 광덕대로 194(고잔동)  NC고잔점 4층",
    "tel": "010-5820-9194",
    "time": "10:00~21:00 (연중 무휴, 명절 당일 제외)",
    "type": "백화점",
    "lat": 35.22867,
    "lng": 128.885223
  },
  {
    "id": 277,
    "name": "에버세이브청주점",
    "address": "충청북도 청주시 서원구 청남로1936번길 2(미평동)  2층",
    "tel": "043-291-7887",
    "time": "10:00~21:00 (연중 무휴, 명절 당일 제외)",
    "type": "백화점",
    "lat": 35.22867,
    "lng": 128.885223
  },
  {
    "id": 278,
    "name": "뉴코아인천논현점",
    "address": "인천광역시 남동구 청능대로 596 푸르지오시티  뉴코아인천논현점",
    "tel": "032-454-8388",
    "time": "10:00~21:00 (연중 무휴, 명절 당일 제외)",
    "type": "백화점",
    "lat": 35.22867,
    "lng": 128.885223
  },
  {
    "id": 279,
    "name": "뉴코아광명점",
    "address": "경기도 광명시 하안로287번길 8(하안동)  뉴코아광명점",
    "tel": "02-897-9333",
    "time": "10:00~21:00 (연중 무휴, 명절 당일 제외)",
    "type": "백화점",
    "lat": 35.22867,
    "lng": 128.885223
  },
  {
    "id": 280,
    "name": "홈플러스의정부점",
    "address": "경기도 의정부시 청사로 38(금오동)  홈플러스의정부점 3층",
    "tel": "031-851-6121",
    "time": "10:00~21:00 (연중 무휴, 명절 당일 제외)",
    "type": "대리점",
    "lat": 35.22867,
    "lng": 128.885223
  },
  {
    "id": 281,
    "name": "이마트상봉점",
    "address": "서울특별시 중랑구 상봉로 118(망우동)  이마트상봉점 3층",
    "tel": "02-993-0882",
    "time": "10:00~21:00 (연중 무휴, 명절 당일 제외)",
    "type": "대리점",
    "lat": 35.22867,
    "lng": 128.885223
  },
  {
    "id": 282,
    "name": "패션아일랜드대전직영점",
    "address": "대전광역시 동구 은어송로 72(가오동)  패션아일랜드",
    "tel": "042-280-9191",
    "time": "10:00~21:00 (연중 무휴, 명절 당일 제외)",
    "type": "직영점",
    "lat": 36.306931,
    "lng": 127.458016
  },
  {
    "id": 283,
    "name": "반여복합점",
    "address": "부산광역시 해운대구 선수촌로137(반여동)  ",
    "tel": "051-523-6003",
    "time": "10:00~21:00 (연중 무휴, 명절 당일 제외)",
    "type": "대리점",
    "lat": 35.22867,
    "lng": 128.885223
  },
  {
    "id": 284,
    "name": "홈플러스진접점",
    "address": "경기도 남양주시 진접읍 금강로 1447  홈플러스진접점 지하1층",
    "tel": "070-4226-1110",
    "time": "10:00~21:00 (연중 무휴, 명절 당일 제외)",
    "type": "대리점",
    "lat": 35.22867,
    "lng": 128.885223
  },
  {
    "id": 285,
    "name": "모다아울렛전주김제점",
    "address": "전북 김제시 용지면 콩쥐팥쥐로 855  모다아울렛전주김제점 1층",
    "tel": "063-540-9450",
    "time": "10:00~21:00 (연중 무휴, 명절 당일 제외)",
    "type": "대리점",
    "lat": 35.22867,
    "lng": 128.885223
  },
  {
    "id": 286,
    "name": "이마트해운대점",
    "address": "부산광역시 해운대구 좌동순환로 511(중동)  이마트해운대점 2층",
    "tel": "010-4125-5919",
    "time": "10:00~21:00 (연중 무휴, 명절 당일 제외)",
    "type": "대리점",
    "lat": 35.22867,
    "lng": 128.885223
  },
  {
    "id": 287,
    "name": "화성봉담점",
    "address": "경기도 화성시 봉담읍 삼천병마로 1047-10  B동 106호",
    "tel": "070-7013-8254",
    "time": "10:00~21:00 (연중 무휴, 명절 당일 제외)",
    "type": "대리점",
    "lat": 35.22867,
    "lng": 128.885223
  },
  {
    "id": 288,
    "name": "신세계영등포점",
    "address": "서울특별시 영등포구 영중로 15(영등포동4가)  신세계영등포점",
    "tel": "02-2639-1531",
    "time": "10:00~21:00 (연중 무휴, 명절 당일 제외)",
    "type": "백화점",
    "lat": 35.22867,
    "lng": 128.885223
  },
  {
    "id": 289,
    "name": "나주점",
    "address": "전라남도 나주시 중앙로59(성북동)  ",
    "tel": "061-333-1537",
    "time": "10:00~21:00 (연중 무휴, 명절 당일 제외)",
    "type": "대리점",
    "lat": 35.22867,
    "lng": 128.885223
  },
  {
    "id": 290,
    "name": "홈플러스부천상동직영점",
    "address": "경기도 부천시 길주로 118(상동)  홈플러스상동점 2층",
    "tel": "010-7153-5653",
    "time": "10:00~21:00 (연중 무휴, 명절 당일 제외)",
    "type": "직영점",
    "lat": 37.504294,
    "lng": 126.754982
  },
  {
    "id": 291,
    "name": "스퀘어원인천직영점",
    "address": "인천광역시 연수구 청능대로 210(동춘동)  스퀘어원인천점",
    "tel": "032-456-4245",
    "time": "10:00~21:00 (연중 무휴, 명절 당일 제외)",
    "type": "직영점",
    "lat": 37.405959,
    "lng": 126.683684
  },
  {
    "id": 292,
    "name": "AK평택점",
    "address": "경기도 평택시 평택로51, 1층(평택동)  AK평택점",
    "tel": "031-646-6313",
    "time": "10:00~21:00 (연중 무휴, 명절 당일 제외)",
    "type": "백화점",
    "lat": 36.990883,
    "lng": 127.0859
  },
  {
    "id": 293,
    "name": "거제고현점",
    "address": "경상남도 거제시 거제중앙로 1900(고현동)  109호",
    "tel": "055-632-5353",
    "time": "10:00~21:00 (연중 무휴, 명절 당일 제외)",
    "type": "대리점",
    "lat": 35.22867,
    "lng": 128.885223
  },
  {
    "id": 294,
    "name": "세정아울렛광주점",
    "address": "광주광역시 서구 상무대로 773  세정아울렛동 110호(치평동)",
    "tel": "062-381-0547",
    "time": "10:00~21:00 (연중 무휴, 명절 당일 제외)",
    "type": "대리점",
    "lat": 35.22867,
    "lng": 128.885223
  },
  {
    "id": 295,
    "name": "진영휴게소아울렛",
    "address": "경상남도 김해시 진영읍 하계로96번길 94-4  진영휴게소",
    "tel": "055-342-2229",
    "time": "10:00~21:00 (연중 무휴, 명절 당일 제외)",
    "type": "대리점",
    "lat": 35.22867,
    "lng": 128.885223
  },
  {
    "id": 296,
    "name": "NC대전유성점",
    "address": "대전광역시 유성구 계룡로119(봉명동)  NC대전유성점 4층",
    "tel": "042-332-0252",
    "time": "10:00~21:00 (연중 무휴, 명절 당일 제외)",
    "type": "백화점",
    "lat": 35.22867,
    "lng": 128.885223
  },
  {
    "id": 297,
    "name": "뉴코아평촌점",
    "address": "경기도 안양시 동안구 동안로 119(호계동)  뉴코아평촌점 5층",
    "tel": "031-388-0212",
    "time": "10:00~21:00 (연중 무휴, 명절 당일 제외)",
    "type": "대리점",
    "lat": 35.22867,
    "lng": 128.885223
  },
  {
    "id": 298,
    "name": "동아강북점",
    "address": "대구광역시 북구 칠곡중앙대로 416(읍내동)  동아강북점 4층",
    "tel": "010-6547-1991",
    "time": "10:00~21:00 (연중 무휴, 명절 당일 제외)",
    "type": "백화점",
    "lat": 35.22867,
    "lng": 128.885223
  },
  {
    "id": 299,
    "name": "홈플러스병점아울렛점",
    "address": "경기도 화성시 경기대로 985(병점동)  홈플러스병점점 1층",
    "tel": "010-9319-1575",
    "time": "10:00~21:00 (연중 무휴, 명절 당일 제외)",
    "type": "대리점",
    "lat": 35.22867,
    "lng": 128.885223
  },
  {
    "id": 300,
    "name": "예산점",
    "address": "충청남도 예산군 예산읍 예산로202번길 10  ",
    "tel": "041-335-9225",
    "time": "10:00~21:00 (연중 무휴, 명절 당일 제외)",
    "type": "대리점",
    "lat": 35.22867,
    "lng": 128.885223
  },
  {
    "id": 301,
    "name": "함안점",
    "address": "경상남도 함안군 가야읍 가야로 27  ",
    "tel": "055-583-6262",
    "time": "10:00~21:00 (연중 무휴, 명절 당일 제외)",
    "type": "대리점",
    "lat": 35.22867,
    "lng": 128.885223
  },
  {
    "id": 302,
    "name": "디큐브거제점",
    "address": "경상남도 거제시 장평로 12(장평동)  디큐브백화점 5층",
    "tel": "055-680-0528",
    "time": "10:00~21:00 (연중 무휴, 명절 당일 제외)",
    "type": "백화점",
    "lat": 34.891162,
    "lng": 128.616558
  },
  {
    "id": 303,
    "name": "동두천점",
    "address": "경기도 동두천시 중앙로 286-1(생연동)  ",
    "tel": "031-861-9535",
    "time": "10:00~21:00 (연중 무휴, 명절 당일 제외)",
    "type": "대리점",
    "lat": 35.22867,
    "lng": 128.885223
  },
  {
    "id": 304,
    "name": "모다아울렛충주점",
    "address": "충청북도 충주시 중원대로 3683(달천동)  모다아울렛충주점 1층",
    "tel": "010-8946-6374",
    "time": "10:00~21:00 (연중 무휴, 명절 당일 제외)",
    "type": "대리점",
    "lat": 35.22867,
    "lng": 128.885223
  },
  {
    "id": 305,
    "name": "대구송현복합점",
    "address": "대구광역시 달서구 월배로 353(송현동)  104호",
    "tel": "053-656-8092",
    "time": "10:00~21:00 (연중 무휴, 명절 당일 제외)",
    "type": "대리점",
    "lat": 35.22867,
    "lng": 128.885223
  },
  {
    "id": 306,
    "name": "도봉상설점",
    "address": "서울특별시 도봉구 도봉산4길 5(도봉동)  ",
    "tel": "02-955-1114",
    "time": "10:00~21:00 (연중 무휴, 명절 당일 제외)",
    "type": "대리점",
    "lat": 35.22867,
    "lng": 128.885223
  },
  {
    "id": 307,
    "name": "홈플러스경산아울렛점",
    "address": "경상북도 경산시 경안로 288(중방동)  홈플러스경산점",
    "tel": "010-2494-6170",
    "time": "10:00~21:00 (연중 무휴, 명절 당일 제외)",
    "type": "대리점",
    "lat": 35.22867,
    "lng": 128.885223
  },
  {
    "id": 308,
    "name": "모다아울렛대전점",
    "address": "대전광역시 유성구 대정로 5(대정동)  모다아울렛대전점 2층",
    "tel": "042-545-8535",
    "time": "10:00~21:00 (연중 무휴, 명절 당일 제외)",
    "type": "대리점",
    "lat": 35.22867,
    "lng": 128.885223
  },
  {
    "id": 309,
    "name": "광주우산복합점",
    "address": "광주광역시 북구 서방로 86(우산동)  1동, 101호",
    "tel": "062-515-1516",
    "time": "10:00~21:00 (연중 무휴, 명절 당일 제외)",
    "type": "대리점",
    "lat": 35.22867,
    "lng": 128.885223
  },
  {
    "id": 310,
    "name": "남원점",
    "address": "전라북도 남원시 남문로 423-1(하정동)  ",
    "tel": "063-633-8900",
    "time": "10:00~21:00 (연중 무휴, 명절 당일 제외)",
    "type": "대리점",
    "lat": 35.22867,
    "lng": 128.885223
  },
  {
    "id": 311,
    "name": "부산기장점",
    "address": "부산광역시 기장군 기장읍 차성동로 77  ",
    "tel": "051-723-6216",
    "time": "10:00~21:00 (연중 무휴, 명절 당일 제외)",
    "type": "대리점",
    "lat": 35.22867,
    "lng": 128.885223
  },
  {
    "id": 312,
    "name": "롯데아울렛고양점",
    "address": "경기도 고양시 덕양구 권율대로 420(도내동)  롯데아울렛고양점 2층",
    "tel": "031-8035-2870",
    "time": "10:00~21:00 (연중 무휴, 명절 당일 제외)",
    "type": "직영점",
    "lat": 37.629608,
    "lng": 126.863062
  },
  {
    "id": 313,
    "name": "고창점",
    "address": "전라북도 고창군 고창읍 중앙로 173",
    "tel": "063-563-3533",
    "time": "10:00~21:00 (연중 무휴, 명절 당일 제외)",
    "type": "대리점",
    "lat": 35.435455,
    "lng": 126.694553
  },
  {
    "id": 314,
    "name": "2001천호점",
    "address": "서울특별시 강동구 구천면로 189(천호동, 동아코아아파트)  2001천호점 지하 1층",
    "tel": "02-2224-6318",
    "time": "10:00~21:00 (연중 무휴, 명절 당일 제외)",
    "type": "대리점",
    "lat": 35.22867,
    "lng": 128.885223
  },
  {
    "id": 315,
    "name": "영월점",
    "address": "강원도 영월군 영월읍 중앙로 54  ",
    "tel": "033-374-5481",
    "time": "10:00~21:00 (연중 무휴, 명절 당일 제외)",
    "type": "대리점",
    "lat": 37.183365,
    "lng": 128.469615
  },
  {
    "id": 316,
    "name": "홈플러스월드컵아울렛점",
    "address": "서울특별시 마포구 월드컵로 240(성산동)  홈플러스월드컵점 2층",
    "tel": "070-7537-1442",
    "time": "10:00~21:00 (연중 무휴, 명절 당일 제외)",
    "type": "대리점",
    "lat": 35.22867,
    "lng": 128.885223
  },
  {
    "id": 317,
    "name": "NC신구로점",
    "address": "서울특별시 구로구 구로중앙로 152(구로동)  ",
    "tel": "02-6923-2394",
    "time": "10:00~21:00 (연중 무휴, 명절 당일 제외)",
    "type": "백화점",
    "lat": 35.22867,
    "lng": 128.885223
  },
  {
    "id": 318,
    "name": "홈플러스파주운정점",
    "address": "경기도 파주시 청암로17번길 17(목동동)  홈플러스파주운정점 1층",
    "tel": "031-949-1610",
    "time": "10:00~21:00 (연중 무휴, 명절 당일 제외)",
    "type": "대리점",
    "lat": 35.22867,
    "lng": 128.885223
  },
  {
    "id": 319,
    "name": "뉴코아덕천점",
    "address": "부산광역시 북구 만덕대로 23(덕천동)  뉴코아덕천점 지하1층",
    "tel": "051-366-2353",
    "time": "10:00~21:00 (연중 무휴, 명절 당일 제외)",
    "type": "대리점",
    "lat": 35.22867,
    "lng": 128.885223
  }
]
